city,district,name,score,comment_number,month_sales_clean,avg_price_rmb,category1,delivery_time_clean,delivery_type_1,in_time_delivery_percent,min_price_rmb,shipping_fee_clean,lat,lng,Day_Time,Night_Time,Mid_Night_Time,recommend_Bin,district population in (10 thousands),population density (people/square kilometer),Rent,Female,Male,18 and below,19-24,25-34,35-44,45-54,55 and above,50 yuan and below,50-100 yuan,100-300 yuan,300 yuan,Shopping,Catering Service,Car Service,Leisure,Other,Medicare,Education,Beauty
Beijing,Chaoyang District,Fapai 1855 (Yaojiayuan Store),5,25,17,119,SweetCake,50, MeituanRun ,0,30,6,39.950132,116.516005,1,1,0,0,345.1,7583,316.8,0.503,0.497,0.099,0.123,0.228,0.2,0.164,0.187,0.093,0.667,0.232,0.008,0.244,0.388,0.039,0.069,0.081,0.179,0,0
Beijing,Chaoyang District,Guyugong Tea • Hand-held Cake • Snacks (Beijing Flagship Store),4.9,2861,2824,17,Foods,36,MeituanFlash,80,16,0,39.993976,116.424895,1,1,0,0,345.1,7583,316.8,0.503,0.497,0.099,0.123,0.228,0.2,0.164,0.187,0.093,0.667,0.232,0.008,0.244,0.388,0.039,0.069,0.081,0.179,0,0
Beijing,Dongcheng District,Spicy Worry-Free Spicy Pot (Ciqikou Store),4.8,2223,1771,21,Foods,31,MeituanFlash,58,20,2,39.892838,116.421058,1,1,0,0,70.9,16937,362.8,0.506,0.494,0.102,0.119,2.206,0.198,0.162,0.194,0.099,0.68,0.214,0.008,0.256,0.375,0.035,0.067,0.074,0.193,0,0
Beijing,Xicheng District,Le Huo Four Seasons (Xuanwu Store),4.6,978,1469,27,Foods,30,MeituanFlash,78,20,0,39.898422,116.375004,1,1,0,0,110.6,21888,263.1,0.505,0.495,0.101,0.12,0.226,0.201,0.161,0.192,0.098,0.682,0.213,0.007,0.245,0.392,0.034,0.065,0.061,0.203,0,0
Beijing,Haidian District,Zhang Jiyuan Braised Chicken and Rice (No. 14 Huimiyuan Food City Store),4.5,4384,9568,21,Foods,30,MeituanFlash,85,0,2,40.049413,116.310516,1,1,0,1,313.2,7271,398,0.505,0.495,0.1,0.125,0.216,0.21,0.162,0.187,0.106,0.728,0.156,0.009,0.233,0.383,0.04,0.068,0.077,0.199,0,0
Beijing,Haidian District,Wallace Whole Chicken Burger (Nongda South Road Store),4.6,3151,5974,19,Foods,36,MeituanFlash,74,20,0,40.023314,116.280224,1,1,0,1,313.2,7271,398,0.505,0.495,0.1,0.125,0.216,0.21,0.162,0.187,0.106,0.728,0.156,0.009,0.233,0.383,0.04,0.068,0.077,0.199,0,0
Beijing,Chaoyang District,Wanjia Good Morning and Breakfast (Hujialou Store),4.5,5790,8565,17,Foods,36,MeituanFlash,80,15,0,39.922826,116.466347,0,1,1,1,345.1,7583,316.8,0.503,0.497,0.099,0.123,0.228,0.2,0.164,0.187,0.093,0.667,0.232,0.008,0.244,0.388,0.039,0.069,0.081,0.179,0,0
Beijing,Haidian District,Wangjing Xiaoyao (Haidian Tiancun Store),4.6,1436,1936,36,Foods,44, MeituanRun ,53,20,0,39.929697,116.246431,1,1,1,0,313.2,7271,398,0.505,0.495,0.1,0.125,0.216,0.21,0.162,0.187,0.106,0.728,0.156,0.009,0.233,0.383,0.04,0.068,0.077,0.199,0,0
Beijing,Chaoyang District,Fat Chef (Chaoyang Store),4.4,7416,9999,18,Foods,34,MeituanFlash,68,20,0,39.920003,116.443464,1,1,0,1,345.1,7583,316.8,0.503,0.497,0.099,0.123,0.228,0.2,0.164,0.187,0.093,0.667,0.232,0.008,0.244,0.388,0.039,0.069,0.081,0.179,0,0
Beijing,Dongcheng District,Gourmet Meike • Spicy and Hot Pot (Lama Temple Store),4.8,3582,3318,20,Foods,40,MeituanFlash,79,15,0,39.952337,116.419424,1,1,0,0,70.9,16937,362.8,0.506,0.494,0.102,0.119,2.206,0.198,0.162,0.194,0.099,0.68,0.214,0.008,0.256,0.375,0.035,0.067,0.074,0.193,0,0
Beijing,Haidian District,Wife is very mang durian lasagna cake (Beijing store),4.8,5008,5776,37,SweetCake,59, MeituanRun ,20,21,0,39.973105,116.362301,1,1,0,1,313.2,7271,398,0.505,0.495,0.1,0.125,0.216,0.21,0.162,0.187,0.106,0.728,0.156,0.009,0.233,0.383,0.04,0.068,0.077,0.199,0,0
Beijing,Haidian District,Creative Light Food (A10 Chaofuyuan Food City Store),4.9,2293,3506,30,Foods,40,MeituanFlash,88,20,0,39.947839,116.355678,1,1,0,1,313.2,7271,398,0.505,0.495,0.1,0.125,0.216,0.21,0.162,0.187,0.106,0.728,0.156,0.009,0.233,0.383,0.04,0.068,0.077,0.199,0,0
Beijing,Chaoyang District,Three meals a day • Home cooking (Ritan Store),4.3,2034,3708,18,Foods,40,MeituanFlash,54,20,0,39.919772,116.443422,1,1,0,0,345.1,7583,316.8,0.503,0.497,0.099,0.123,0.228,0.2,0.164,0.187,0.093,0.667,0.232,0.008,0.244,0.388,0.039,0.069,0.081,0.179,0,0
Beijing,Chaoyang District,Wangjing Barbecue Xiaolao (Sanlitun Store),4.4,559,650,28,Foods,40, MeituanRun ,56,20,0,39.928832,116.457789,1,1,1,1,345.1,7583,316.8,0.503,0.497,0.099,0.123,0.228,0.2,0.164,0.187,0.093,0.667,0.232,0.008,0.244,0.388,0.039,0.069,0.081,0.179,0,0
Beijing,Dongcheng District,Brother Zhang Spicy Mix (Dongzhimen Store),4.9,4666,5454,20,Foods,32,MeituanFlash,83,15,1,39.940212,116.437388,1,1,0,1,70.9,16937,362.8,0.506,0.494,0.102,0.119,2.206,0.198,0.162,0.194,0.099,0.68,0.214,0.008,0.256,0.375,0.035,0.067,0.074,0.193,0,0
Beijing,Shunyi District,Sai Peng Braised Chicken and Spare Pork Rice (No.13 stall-Naojiangchun Food City Store),4.3,470,513,21,Foods,36,MeituanFlash,94,0,0,40.133237,116.651922,1,1,1,0,132.4,1298,128.8,0.497,0.503,0.104,0.123,0.226,0.196,0.165,0.185,0.116,0.696,0.185,0.002,0.257,0.369,0.032,0.064,0.071,0.207,0,0
Beijing,Chaoyang District,Manling Congee Store (Gaobeidian Store),4.8,2860,5820,19,Foods,30,MeituanFlash,90,15,0,39.903586,116.514813,0,1,1,1,345.1,7583,316.8,0.503,0.497,0.099,0.123,0.228,0.2,0.164,0.187,0.093,0.667,0.232,0.008,0.244,0.388,0.039,0.069,0.081,0.179,0,0
Beijing,Chaoyang District,Dawn abalone rice (No. 9 grape canteen gourmet city restaurant),4.9,1669,2877,41,Foods,43, MeituanRun ,45,0,0,39.929996,116.503822,1,1,1,0,345.1,7583,316.8,0.503,0.497,0.099,0.123,0.228,0.2,0.164,0.187,0.093,0.667,0.232,0.008,0.244,0.388,0.039,0.069,0.081,0.179,0,0
Beijing,Haidian District,Xian Shu Yu · Light Food (Xizhimen Store),4.8,3897,6667,25,Foods,43,MeituanFlash,80,15,0,39.94489,116.350759,1,1,0,1,313.2,7271,398,0.505,0.495,0.1,0.125,0.216,0.21,0.162,0.187,0.106,0.728,0.156,0.009,0.233,0.383,0.04,0.068,0.077,0.199,0,0
Beijing,Shunyi District,Rice bag girl,4.8,1271,3070,24,Foods,48,MeituanFlash,68,20,0,40.136719,116.638931,1,1,0,0,132.4,1298,128.8,0.497,0.503,0.104,0.123,0.226,0.196,0.165,0.185,0.116,0.696,0.185,0.002,0.257,0.369,0.032,0.064,0.071,0.207,0,0
Beijing,Xicheng District,Wanjia Good Morning Pinzhi Breakfast (Jishuitan Store),4.6,1677,3000,16,Foods,33,MeituanFlash,92,15,2,39.942575,116.379767,1,1,1,1,110.6,21888,263.1,0.505,0.495,0.101,0.12,0.226,0.201,0.161,0.192,0.098,0.682,0.213,0.007,0.245,0.392,0.034,0.065,0.061,0.203,0,0
Beijing,Fengtai District,Wangjing Barbecue (Liujiayao Store),4.9,730,1083,29,Foods,32, MeituanRun ,100,0,0,39.860528,116.421418,1,1,1,0,201.9,6602,259.5,0.499,0.501,0.098,0.125,0.226,0.196,0.167,0.188,0.12,0.759,0.116,0.005,0.246,0.363,0.048,0.077,0.09,0.176,0,0
Beijing,Dongcheng District,Yang Mingyu Braised Chicken and Rice (Ciqikou Store),4.8,5831,7760,22,Foods,31,MeituanFlash,86,0,0,39.893021,116.421513,1,1,0,1,70.9,16937,362.8,0.506,0.494,0.102,0.119,2.206,0.198,0.162,0.194,0.099,0.68,0.214,0.008,0.256,0.375,0.035,0.067,0.074,0.193,0,0
Beijing,Dongcheng District,Delicious Cake (Industrial Sports Store),4.9,66,355,105,SweetCake,45, MeituanRun ,0,0,0,39.93413,116.4277,1,1,0,0,70.9,16937,362.8,0.506,0.494,0.102,0.119,2.206,0.198,0.162,0.194,0.099,0.68,0.214,0.008,0.256,0.375,0.035,0.067,0.074,0.193,0,0
Beijing,Chaoyang District,Jibei North Stew Division Herbal Kitchen (Guomao Store),5,185,362,73,DessertDrink,44, MeituanRun ,36,50,7,39.90493,116.459634,1,1,0,1,345.1,7583,316.8,0.503,0.497,0.099,0.123,0.228,0.2,0.164,0.187,0.093,0.667,0.232,0.008,0.244,0.388,0.039,0.069,0.081,0.179,0,0
Beijing,Haidian District,"Linyi Iron Pot Fried Chicken, Dashan Chicken (C5th Grade-Orange Cat Selection Food City)",4.7,1103,3583,43,Foods,50, MeituanRun ,28,20,3,39.960518,116.345939,1,1,0,0,313.2,7271,398,0.505,0.495,0.1,0.125,0.216,0.21,0.162,0.187,0.106,0.728,0.156,0.009,0.233,0.383,0.04,0.068,0.077,0.199,0,0
Beijing,Haidian District,Drunken love braised chicken rice ribs rice (beef rice),4.9,9791,9999,23,Foods,40,MeituanFlash,72,10,0,39.993077,116.33815,1,1,0,1,313.2,7271,398,0.505,0.495,0.1,0.125,0.216,0.21,0.162,0.187,0.106,0.728,0.156,0.009,0.233,0.383,0.04,0.068,0.077,0.199,0,0
Beijing,Chaoyang District,Steamed Fresh Hairy Crab Seafood Crayfish (International Trade Store),4.8,1597,2199,73,Foods,60, MeituanRun ,5,0,0,39.902726,116.474736,1,1,1,1,345.1,7583,316.8,0.503,0.497,0.099,0.123,0.228,0.2,0.164,0.187,0.093,0.667,0.232,0.008,0.244,0.388,0.039,0.069,0.081,0.179,0,0
Beijing,Fengtai District,Flower Top Brand Flower Shop • West Station Lizeqiao Shop • Rose • Sunflower • White Flower Basket,4.8,672,566,116,RomanticFLowers,30, MeituanRun ,22,0,0,39.871361,116.322849,0,1,1,0,201.9,6602,259.5,0.499,0.501,0.098,0.125,0.226,0.196,0.167,0.188,0.12,0.759,0.116,0.005,0.246,0.363,0.048,0.077,0.09,0.176,0,0
Beijing,Chaoyang District,Beiping barbecue a long time ago,4.9,2389,1057,27,Foods,29, MeituanRun ,54,25,0,39.922062,116.5531,1,1,0,0,345.1,7583,316.8,0.503,0.497,0.099,0.123,0.228,0.2,0.164,0.187,0.093,0.667,0.232,0.008,0.244,0.388,0.039,0.069,0.081,0.179,0,0
Beijing,Fengtai District,Delicious Cake (Majiabao Store),5,661,780,101,SweetCake,30, MeituanRun ,76,0,0,39.839402,116.384472,1,1,0,1,201.9,6602,259.5,0.499,0.501,0.098,0.125,0.226,0.196,0.167,0.188,0.12,0.759,0.116,0.005,0.246,0.363,0.048,0.077,0.09,0.176,0,0
Beijing,Dongcheng District,People's Commune Home-cooked Cuisine (the first stall-Zhongteng Xinye Food City Store),4.6,7456,9999,21,Foods,32,MeituanFlash,83,20,0.5,39.892838,116.421058,1,1,0,1,70.9,16937,362.8,0.506,0.494,0.102,0.119,2.206,0.198,0.162,0.194,0.099,0.68,0.214,0.008,0.256,0.375,0.035,0.067,0.074,0.193,0,0
Beijing,Chaoyang District,Delai gathered donkey meat on fire (No. 2-Yidu Boat Food City Store),4.9,6305,4778,21,Foods,40,MeituanFlash,76,20,0,39.989664,116.484142,1,1,0,0,345.1,7583,316.8,0.503,0.497,0.099,0.123,0.228,0.2,0.164,0.187,0.093,0.667,0.232,0.008,0.244,0.388,0.039,0.069,0.081,0.179,0,0
Beijing,Dongcheng District,Jibei North Stew Division (Anding Store),4.6,147,335,73,DessertDrink,73, MeituanRun ,17,50,5,39.943421,116.408618,1,1,0,1,70.9,16937,362.8,0.506,0.494,0.102,0.119,2.206,0.198,0.162,0.194,0.099,0.68,0.214,0.008,0.256,0.375,0.035,0.067,0.074,0.193,0,0
Beijing,Chaoyang District,Pirate Shrimp Rice · Quality Meal (Xinchenli Store),4.6,2116,3473,31,Foods,42,MeituanFlash,65,15,0,39.998008,116.408562,1,1,0,1,345.1,7583,316.8,0.503,0.497,0.099,0.123,0.228,0.2,0.164,0.187,0.093,0.667,0.232,0.008,0.244,0.388,0.039,0.069,0.081,0.179,0,0
Beijing,Haidian District,Youxiu Warm Meal Light Food [Mixed Rice]],4.9,1622,1666,23,Foods,40,MeituanFlash,67,20,0,39.925178,116.298696,1,1,0,0,313.2,7271,398,0.505,0.495,0.1,0.125,0.216,0.21,0.162,0.187,0.106,0.728,0.156,0.009,0.233,0.383,0.04,0.068,0.077,0.199,0,0
Beijing,Tongzhou District,Paozi Huang La Flavor Paozi Rice (Liyuan Store),4.8,1322,3597,29,Foods,42,MeituanFlash,57,20,0,39.884673,116.666825,1,1,0,0,184,2030,234.2,0.504,0.496,0.104,0.122,0.221,0.197,0.165,0.192,0.153,0.727,0.117,0.003,0.247,0.336,0.05,0.071,0.099,0.197,0,0
Beijing,Dongcheng District,Kim's Korean flavor (No. 6-Zhongteng Xinye Food City Store),4.6,1041,1628,23,Foods,30,MeituanFlash,84,15,0,39.89281,116.421226,1,1,0,0,70.9,16937,362.8,0.506,0.494,0.102,0.119,2.206,0.198,0.162,0.194,0.099,0.68,0.214,0.008,0.256,0.375,0.035,0.067,0.074,0.193,0,0
Beijing,Haidian District,Chuangxiang Small Chef (No. 6 Shankou Xin Times Food City Store),4.5,2783,3662,21,Foods,42,MeituanFlash,51,20,0,39.979386,116.313061,1,1,0,0,313.2,7271,398,0.505,0.495,0.1,0.125,0.216,0.21,0.162,0.187,0.106,0.728,0.156,0.009,0.233,0.383,0.04,0.068,0.077,0.199,0,0
Beijing,Chaoyang District,Pirate Shrimp Rice · Quality Meal (Sanlitun Store),4.8,1277,3199,32,Foods,31,MeituanFlash,72,20,1,39.93286,116.45475,1,1,0,1,345.1,7583,316.8,0.503,0.497,0.099,0.123,0.228,0.2,0.164,0.187,0.093,0.667,0.232,0.008,0.244,0.388,0.039,0.069,0.081,0.179,0,0
Beijing,Chaoyang District,Pirate Shrimp Rice · Quality Meal (Industrial Sports Store),4.9,2476,3342,33,Foods,40,MeituanFlash,87,20,0,39.935956,116.444198,1,1,0,1,345.1,7583,316.8,0.503,0.497,0.099,0.123,0.228,0.2,0.164,0.187,0.093,0.667,0.232,0.008,0.244,0.388,0.039,0.069,0.081,0.179,0,0
Beijing,Fangshan District,Haomai · Net Red Creative Flower Cake (Fangshan Store),5,68,9,110,SweetCake,60, MeituanRun ,25,0,0,39.730619,116.15828,1,1,0,0,131.3,660,146.8,0.505,0.495,0.098,0.132,0.224,0.196,0.169,0.181,0.158,0.683,0.151,0.008,0.222,0.416,0.045,0.073,0.075,0.169,0,0
Beijing,Fengtai District,Light Food Pie (Songjiazhuang Store),4.7,2214,2083,22,Foods,50,MeituanFlash,78,15,0,39.849166,116.42796,1,1,0,0,201.9,6602,259.5,0.499,0.501,0.098,0.125,0.226,0.196,0.167,0.188,0.12,0.759,0.116,0.005,0.246,0.363,0.048,0.077,0.09,0.176,0,0
Beijing,Chaoyang District,Guzhen Crossing Bridge Rice Nian (Youth Road Store),4.6,3430,3749,16,Foods,38,MeituanFlash,82,0,2,39.934695,116.514188,0,1,1,1,345.1,7583,316.8,0.503,0.497,0.099,0.123,0.228,0.2,0.164,0.187,0.093,0.667,0.232,0.008,0.244,0.388,0.039,0.069,0.081,0.179,0,0
Beijing,Shunyi District,Sinoe Baking High-end Custom Theme Cake,4.6,275,211,227,SweetCake,44, MeituanRun ,0,0,0,40.111969,116.554668,1,1,1,1,132.4,1298,128.8,0.497,0.503,0.104,0.123,0.226,0.196,0.165,0.185,0.116,0.696,0.185,0.002,0.257,0.369,0.032,0.064,0.071,0.207,0,0
Beijing,Chaoyang District,Yue Tian Fang net red birthday cake,4.6,708,586,79,SweetCake,42, MeituanRun ,0,0,0,39.919311,116.53519,1,1,0,1,345.1,7583,316.8,0.503,0.497,0.099,0.123,0.228,0.2,0.164,0.187,0.093,0.667,0.232,0.008,0.244,0.388,0.039,0.069,0.081,0.179,0,0
Beijing,Changping District,Wallace Fried Chicken Burger (Lishuiqiao Store),4.5,2498,3783,18,Foods,42,MeituanFlash,57,20,0,40.057047,116.415153,1,1,0,0,226.9,1689,204.2,0.505,0.495,0.106,0.121,0.221,0.195,0.162,0.195,0.116,0.733,0.133,0.018,0.222,0.415,0.045,0.073,0.075,0.17,0,0
Beijing,Tongzhou District,Good Taste Braised Chicken and Rice (Fifth Grade Chujiang Renhe Food City Store),4.7,1558,3082,19,Foods,46,MeituanFlash,53,15,0,39.882745,116.669416,1,1,1,0,184,2030,234.2,0.504,0.496,0.104,0.122,0.221,0.197,0.165,0.192,0.153,0.727,0.117,0.003,0.247,0.336,0.05,0.071,0.099,0.197,0,0
Beijing,Chaoyang District,Pirate Shrimp Rice · Quality Meal (Huangsi Store),4.9,1512,2792,32,Foods,39,MeituanFlash,74,20,0,39.963286,116.389225,1,1,0,1,345.1,7583,316.8,0.503,0.497,0.099,0.123,0.228,0.2,0.164,0.187,0.093,0.667,0.232,0.008,0.244,0.388,0.039,0.069,0.081,0.179,0,0
Beijing,Haidian District,Coco Mood Tea Drink (Fourth Grade-Aerospace Prosperity Food City Store),4.7,5210,7658,12,DessertDrink,40,MeituanFlash,88,15,0,39.923682,116.307661,1,1,0,1,313.2,7271,398,0.505,0.495,0.1,0.125,0.216,0.21,0.162,0.187,0.106,0.728,0.156,0.009,0.233,0.383,0.04,0.068,0.077,0.199,0,0
Beijing,Chaoyang District,Pirate Shrimp Rice · Quality Meal (Shangdu Store),4.8,3177,5819,33,Foods,40,MeituanFlash,77,20,0,39.918901,116.45326,1,1,0,1,345.1,7583,316.8,0.503,0.497,0.099,0.123,0.228,0.2,0.164,0.187,0.093,0.667,0.232,0.008,0.244,0.388,0.039,0.069,0.081,0.179,0,0
Beijing,Chaoyang District,Too Good Porridge (Wangjing Store),4.3,1441,4764,19,Foods,33,MeituanFlash,70,20,0,39.990465,116.477864,1,1,0,0,345.1,7583,316.8,0.503,0.497,0.099,0.123,0.228,0.2,0.164,0.187,0.093,0.667,0.232,0.008,0.244,0.388,0.039,0.069,0.081,0.179,0,0
Beijing,Haidian District,Wei Duomei Cake (Wenyang Road Store),4.4,877,2220,63,SweetCake,37,MeituanFlash,62,30,5,40.06785,116.1623,1,1,0,1,313.2,7271,398,0.505,0.495,0.1,0.125,0.216,0.21,0.162,0.187,0.106,0.728,0.156,0.009,0.233,0.383,0.04,0.068,0.077,0.199,0,0
Beijing,Chaoyang District,Mr.cake cake,4.9,1130,1643,79,SweetCake,100, MeituanRun ,0,0,0,39.995422,116.411561,0,1,1,1,345.1,7583,316.8,0.503,0.497,0.099,0.123,0.228,0.2,0.164,0.187,0.093,0.667,0.232,0.008,0.244,0.388,0.039,0.069,0.081,0.179,0,0
Beijing,Daxing District,Spicy Pot (Yuhuayuan Store),4.8,3482,3943,23,Foods,41,MeituanFlash,68,15,0,39.771001,116.33174,1,1,0,0,199.4,1924,183.5,0.498,0.502,0.102,0.125,0.224,0.196,0.169,0.186,0.13,0.732,0.131,0.007,0.256,0.357,0.06,0.08,0.103,0.144,0,0
Beijing,Daxing District,Xiangdang greedy stinky tofu (No. 5-Qianzi Baiwei Food City Store),4.5,713,1299,20,Foods,35,MeituanFlash,79,20,2,39.736232,116.352874,1,1,1,0,199.4,1924,183.5,0.498,0.502,0.102,0.125,0.224,0.196,0.169,0.186,0.13,0.732,0.131,0.007,0.256,0.357,0.06,0.08,0.103,0.144,0,0
Beijing,Xicheng District,Yu nai tea,4.8,682,1064,12,DessertDrink,40,MeituanFlash,79,15,0,39.913695,116.344163,1,1,0,0,110.6,21888,263.1,0.505,0.495,0.101,0.12,0.226,0.201,0.161,0.192,0.098,0.682,0.213,0.007,0.245,0.392,0.034,0.065,0.061,0.203,0,0
Beijing,Chaoyang District,Sunrise Troop Hot Pot Noodles · North Korean Mibap (No. 1 Zhongfu Lubao Food City Store),4.8,2917,2269,23,Foods,40,MeituanFlash,72,15,0,39.983939,116.437795,1,1,0,1,345.1,7583,316.8,0.503,0.497,0.099,0.123,0.228,0.2,0.164,0.187,0.093,0.667,0.232,0.008,0.244,0.388,0.039,0.069,0.081,0.179,0,0
Beijing,Chaoyang District,Pirate Shrimp Rice · Quality Meal (Communication University Store),4.9,3255,5136,32,Foods,40,MeituanFlash,81,20,0,39.916588,116.555306,1,1,0,0,345.1,7583,316.8,0.503,0.497,0.099,0.123,0.228,0.2,0.164,0.187,0.093,0.667,0.232,0.008,0.244,0.388,0.039,0.069,0.081,0.179,0,0
Beijing,Daxing District,Kiln Chicken King (Xihongmen Store),4.7,758,1477,37,Foods,32, MeituanRun ,63,25,1,39.786527,116.323927,1,1,0,0,199.4,1924,183.5,0.498,0.502,0.102,0.125,0.224,0.196,0.169,0.186,0.13,0.732,0.131,0.007,0.256,0.357,0.06,0.08,0.103,0.144,0,0
Beijing,Shunyi District,Wangjing Barbecue Small Waist (Yangzhen Store),4.8,424,386,38,Foods,63, MeituanRun ,15,20,3,40.161902,116.820813,1,1,1,0,132.4,1298,128.8,0.497,0.503,0.104,0.123,0.226,0.196,0.165,0.185,0.116,0.696,0.185,0.002,0.257,0.369,0.032,0.064,0.071,0.207,0,0
Beijing,Daxing District,Sweet Rubik's Cube (Birthday Cake. Bread. Longhu Tianjie Store),4.7,1383,1711,53,SweetCake,40, MeituanRun ,50,25,0,39.686111,116.319707,1,1,0,1,199.4,1924,183.5,0.498,0.502,0.102,0.125,0.224,0.196,0.169,0.186,0.13,0.732,0.131,0.007,0.256,0.357,0.06,0.08,0.103,0.144,0,0
Beijing,Chaoyang District,Material Bazhen • Beef Hu Spicy Soup • Water Fried Bag • Cold Skin • Braised Noodles (Asian Games Village Store),4.7,4062,4778,20,Foods,40,MeituanFlash,83,20,0,39.982765,116.423614,1,1,0,0,345.1,7583,316.8,0.503,0.497,0.099,0.123,0.228,0.2,0.164,0.187,0.093,0.667,0.232,0.008,0.244,0.388,0.039,0.069,0.081,0.179,0,0
Beijing,Haidian District,Zhang Jie barbecue rice crispy chicken rice (No. 6 Dehe Xin Food City),4.9,1808,2396,20,Foods,40,MeituanFlash,79,15,0,39.932701,116.276237,1,1,0,0,313.2,7271,398,0.505,0.495,0.1,0.125,0.216,0.21,0.162,0.187,0.106,0.728,0.156,0.009,0.233,0.383,0.04,0.068,0.077,0.199,0,0
Beijing,Haidian District,Pirate Shrimp Rice · Quality Meal (Zhichun Road Store),4.9,1422,3647,34,Foods,40,MeituanFlash,88,20,0,39.977292,116.3429,1,1,0,1,313.2,7271,398,0.505,0.495,0.1,0.125,0.216,0.21,0.162,0.187,0.106,0.728,0.156,0.009,0.233,0.383,0.04,0.068,0.077,0.199,0,0
Beijing,Daxing District,Megit Fried Chicken Burger (Daxing Store),4.7,2268,2988,22,Foods,40,MeituanFlash,73,20,2,39.755715,116.33688,1,1,0,0,199.4,1924,183.5,0.498,0.502,0.102,0.125,0.224,0.196,0.169,0.186,0.13,0.732,0.131,0.007,0.256,0.357,0.06,0.08,0.103,0.144,0,0
Beijing,Huairou District,"Rongrong cake room (cream cream, animal cream)",4.8,103,66,111,SweetCake,71,Merchant,0,0,0,40.363919,116.665704,1,1,0,0,44.1,208,64.2,0.503,0.497,0.101,0.131,0.24,0.198,0.166,0.165,0.157,0.613,0.203,0.027,0.222,0.416,0.045,0.073,0.075,0.169,0,0
Beijing,Daxing District,Jinmai Bakery Cake Shop,0,1,3,88,SweetCake,44, MeituanRun ,0,60,0,39.727853,116.339621,1,1,0,0,199.4,1924,183.5,0.498,0.502,0.102,0.125,0.224,0.196,0.169,0.186,0.13,0.732,0.131,0.007,0.256,0.357,0.06,0.08,0.103,0.144,0,0
Beijing,Changping District,Fudo Natural Secret Cream Birthday Cake,4.8,679,750,101,SweetCake,40, MeituanRun ,28,0,0,40.06195,116.414749,1,1,0,1,226.9,1689,204.2,0.505,0.495,0.106,0.121,0.221,0.195,0.162,0.195,0.116,0.733,0.133,0.018,0.222,0.415,0.045,0.073,0.075,0.17,0,0
Beijing,Chaoyang District,1stChicken Korean Fried Chicken (Communication University Store),4.8,3114,6007,23,Foods,41,MeituanFlash,69,15,0,39.916587,116.555145,1,1,0,0,345.1,7583,316.8,0.503,0.497,0.099,0.123,0.228,0.2,0.164,0.187,0.093,0.667,0.232,0.008,0.244,0.388,0.039,0.069,0.081,0.179,0,0
Beijing,Dongcheng District,517 Barbecue Rice (Ciqikou Store),4.7,7620,9999,19,Foods,30,MeituanFlash,89,0,1,39.892855,116.421318,1,1,0,1,70.9,16937,362.8,0.506,0.494,0.102,0.119,2.206,0.198,0.162,0.194,0.099,0.68,0.214,0.008,0.256,0.375,0.035,0.067,0.074,0.193,0,0
Beijing,Tongzhou District,Zhang Xiumei Barbecue Rice · Crispy Chicken Rice (No. 10 Xinlong Food City Store),4.7,2010,3557,20,Foods,40,MeituanFlash,73,20,1.4,39.919372,116.677446,1,1,0,1,184,2030,234.2,0.504,0.496,0.104,0.122,0.221,0.197,0.165,0.192,0.153,0.727,0.117,0.003,0.247,0.336,0.05,0.071,0.099,0.197,0,0
Beijing,Chaoyang District,Yuan Wei Fang Spicy Pot (No. 5 Hualian Food City Store),4.7,999,2117,22,Foods,40,MeituanFlash,83,20,0,39.843231,116.447652,1,1,0,1,345.1,7583,316.8,0.503,0.497,0.099,0.123,0.228,0.2,0.164,0.187,0.093,0.667,0.232,0.008,0.244,0.388,0.039,0.069,0.081,0.179,0,0
Beijing,Fangshan District,"Good dream round baked fried chicken, hamburger",4.9,74,77,58,SweetCake,50, MeituanRun ,33,20,1,39.73419,116.061856,1,1,0,0,131.3,660,146.8,0.505,0.495,0.098,0.132,0.224,0.196,0.169,0.181,0.158,0.683,0.151,0.008,0.222,0.416,0.045,0.073,0.075,0.169,0,0
Beijing,Chaoyang District,Pattern Barbecue • Small Waist • Crayfish (Hujiarou Store),4.6,1069,757,19,Foods,46, MeituanRun ,81,20,0,39.9211,116.467963,1,1,1,0,345.1,7583,316.8,0.503,0.497,0.099,0.123,0.228,0.2,0.164,0.187,0.093,0.667,0.232,0.008,0.244,0.388,0.039,0.069,0.081,0.179,0,0
Beijing,Tongzhou District,Wangjing Xiaoyao (Majuqiao Store),4.8,3578,3582,30,Foods,50, MeituanRun ,75,20,0,39.760497,116.556082,1,1,1,0,184,2030,234.2,0.504,0.496,0.104,0.122,0.221,0.197,0.165,0.192,0.153,0.727,0.117,0.003,0.247,0.336,0.05,0.071,0.099,0.197,0,0
Beijing,Chaoyang District,Three round crayfish · seafood shrimp tail · bullfrog crab,4.6,5779,4572,53,Foods,50, MeituanRun ,0,0,0,39.989647,116.483809,1,1,1,1,345.1,7583,316.8,0.503,0.497,0.099,0.123,0.228,0.2,0.164,0.187,0.093,0.667,0.232,0.008,0.244,0.388,0.039,0.069,0.081,0.179,0,0
Beijing,Fengtai District,Ling Shuo's Family · Wushan Roast Fish (Puhuangyu Store),4.7,931,593,71,Foods,60, MeituanRun ,3,10,0,39.860234,116.420964,1,1,0,1,201.9,6602,259.5,0.499,0.501,0.098,0.125,0.226,0.196,0.167,0.188,0.12,0.759,0.116,0.005,0.246,0.363,0.048,0.077,0.09,0.176,0,0
Beijing,Haidian District,BLAQ COFFEE (Zhongguancun Store),4.8,431,1212,30,Foods,32,MeituanFlash,95,20,0,39.9808,116.33106,1,1,0,1,313.2,7271,398,0.505,0.495,0.1,0.125,0.216,0.21,0.162,0.187,0.106,0.728,0.156,0.009,0.233,0.383,0.04,0.068,0.077,0.199,0,0
Beijing,Chaoyang District,Hong Kong Island Story · Hong Kong Barbecued Rice (Beijing Ciyun Temple Bridge Store),4.8,3387,2969,25,Foods,41,MeituanFlash,54,15,0,39.914809,116.494348,1,1,0,0,345.1,7583,316.8,0.503,0.497,0.099,0.123,0.228,0.2,0.164,0.187,0.093,0.667,0.232,0.008,0.244,0.388,0.039,0.069,0.081,0.179,0,0
Beijing,Shijingshan District,Luofenghui Liuzhou snail powder,4.7,1318,1449,22,Foods,36,MeituanFlash,92,20,0,39.926598,116.179331,1,1,0,0,56.8,6736,212.8,0.504,0.496,0.102,0.125,0.226,0.195,0.163,0.19,0.093,0.781,0.122,0.004,0.261,0.381,0.027,0.071,0.066,0.194,0,0
Beijing,Chaoyang District,Weihai Yintan Seafood • Home-cooked Food (Jinsong Store),4.6,224,323,70,Foods,53, MeituanRun ,80,20,4,39.882003,116.465669,1,1,0,1,345.1,7583,316.8,0.503,0.497,0.099,0.123,0.228,0.2,0.164,0.187,0.093,0.667,0.232,0.008,0.244,0.388,0.039,0.069,0.081,0.179,0,0
Beijing,Shijingshan District,Sauerkraut small fish (grilled fish),3.3,1681,994,22,Foods,35,MeituanFlash,56,0,0,39.926345,116.179237,1,1,0,0,56.8,6736,212.8,0.504,0.496,0.102,0.125,0.226,0.195,0.163,0.19,0.093,0.781,0.122,0.004,0.261,0.381,0.027,0.071,0.066,0.194,0,0
Beijing,Shijingshan District,Zhisheng Palace Pastry (Shijingshan Store),4.7,463,886,38,DessertDrink,52,MeituanFlash,69,25,0,39.91111,116.19243,1,1,0,1,56.8,6736,212.8,0.504,0.496,0.102,0.125,0.226,0.195,0.163,0.19,0.093,0.781,0.122,0.004,0.261,0.381,0.027,0.071,0.066,0.194,0,0
Beijing,Fengtai District,Han Ji Taihe Banmian (No. A09 stall can taste food city store),4.8,1175,2238,16,Foods,33,MeituanFlash,86,15,0,39.82143,116.292161,1,1,0,0,201.9,6602,259.5,0.499,0.501,0.098,0.125,0.226,0.196,0.167,0.188,0.12,0.759,0.116,0.005,0.246,0.363,0.048,0.077,0.09,0.176,0,0
Beijing,Shijingshan District,Su Yu Healthy Light Food Salad (Shijingshan Store),4.8,3134,4329,22,Foods,36,MeituanFlash,76,20,0,39.902732,116.246894,1,1,0,0,56.8,6736,212.8,0.504,0.496,0.102,0.125,0.226,0.195,0.163,0.19,0.093,0.781,0.122,0.004,0.261,0.381,0.027,0.071,0.066,0.194,0,0
Beijing,Fengtai District,Warm Yan · Girl Aunt Companion (Muxiyuan Store),4.6,514,1179,37,Foods,59, MeituanRun ,24,30,3,39.850676,116.423851,1,1,0,0,201.9,6602,259.5,0.499,0.501,0.098,0.125,0.226,0.196,0.167,0.188,0.12,0.759,0.116,0.005,0.246,0.363,0.048,0.077,0.09,0.176,0,0
Beijing,Chaoyang District,Wangjing Xiaolao (Olympic Sports Store),4.6,1847,2251,26,Foods,40, MeituanRun ,71,20,0,39.98331,116.409246,1,1,1,0,345.1,7583,316.8,0.503,0.497,0.099,0.123,0.228,0.2,0.164,0.187,0.093,0.667,0.232,0.008,0.244,0.388,0.039,0.069,0.081,0.179,0,0
Beijing,Chaoyang District,A crab crab cooks rice (the eighth stall-Sihai Hyatt Food City Store),4.7,528,1541,25,Foods,31,MeituanFlash,82,20,0,40.005964,116.407208,1,1,0,0,345.1,7583,316.8,0.503,0.497,0.099,0.123,0.228,0.2,0.164,0.187,0.093,0.667,0.232,0.008,0.244,0.388,0.039,0.069,0.081,0.179,0,0
Beijing,Chaoyang District,Malatang Restaurant (Wheat Shop),4.5,423,741,19,Foods,37,MeituanFlash,73,20,0,39.946502,116.470726,1,1,0,1,345.1,7583,316.8,0.503,0.497,0.099,0.123,0.228,0.2,0.164,0.187,0.093,0.667,0.232,0.008,0.244,0.388,0.039,0.069,0.081,0.179,0,0
Beijing,Xicheng District,Yu Nai and Tea (Xisi Store),4.8,3171,4441,12,DessertDrink,30,MeituanFlash,91,15,2,39.927775,116.372972,0,1,1,0,110.6,21888,263.1,0.505,0.495,0.101,0.12,0.226,0.201,0.161,0.192,0.098,0.682,0.213,0.007,0.245,0.392,0.034,0.065,0.061,0.203,0,0
Beijing,Chaoyang District,Li Ji Authentic Anhui Beef Noodles (Jinsong Store),4.6,1415,3277,20,Foods,41,MeituanFlash,73,20,0,39.885555,116.462112,1,1,0,0,345.1,7583,316.8,0.503,0.497,0.099,0.123,0.228,0.2,0.164,0.187,0.093,0.667,0.232,0.008,0.244,0.388,0.039,0.069,0.081,0.179,0,0
Beijing,Haidian District,Yang Mingyu Braised Chicken and Rice (Nongda Store),4.7,4349,5259,23,Foods,40,MeituanFlash,90,0,0,40.001895,116.36029,1,1,0,0,313.2,7271,398,0.505,0.495,0.1,0.125,0.216,0.21,0.162,0.187,0.106,0.728,0.156,0.009,0.233,0.383,0.04,0.068,0.077,0.199,0,0
Beijing,Fangshan District,Moonbird Sushi House,4.8,1162,1161,26,Foods,46, MeituanRun ,29,20,0,39.722186,116.168382,1,1,0,0,131.3,660,146.8,0.505,0.495,0.098,0.132,0.224,0.196,0.169,0.181,0.158,0.683,0.151,0.008,0.222,0.416,0.045,0.073,0.075,0.169,0,0
Beijing,Tongzhou District,CoCo Tea Martha (Tongzhou Store),4.8,2367,5544,13,DessertDrink,40,MeituanFlash,93,15,0,39.923345,116.639925,1,1,0,0,184,2030,234.2,0.504,0.496,0.104,0.122,0.221,0.197,0.165,0.192,0.153,0.727,0.117,0.003,0.247,0.336,0.05,0.071,0.099,0.197,0,0
Beijing,Fangshan District,COCO JOANNA Tea Drink (Liangxiang Store),4.9,1665,2923,12,DessertDrink,40,MeituanFlash,93,0,0,39.731973,116.136377,1,1,0,0,131.3,660,146.8,0.505,0.495,0.098,0.132,0.224,0.196,0.169,0.181,0.158,0.683,0.151,0.008,0.222,0.416,0.045,0.073,0.075,0.169,0,0
Beijing,Chaoyang District,Hunan fluttering Hunan rice noodles (camel house camp),4.9,1513,1736,22,Foods,35,MeituanFlash,75,20,0,39.963348,116.502863,1,1,0,0,345.1,7583,316.8,0.503,0.497,0.099,0.123,0.228,0.2,0.164,0.187,0.093,0.667,0.232,0.008,0.244,0.388,0.039,0.069,0.081,0.179,0,0
Beijing,Chaoyang District,Pancake Brother (No. 2 West Chef Bawang Gourmet City Store),4.7,904,1857,17,Foods,37,MeituanFlash,75,20,1,40.054495,116.411782,1,1,0,0,345.1,7583,316.8,0.503,0.497,0.099,0.123,0.228,0.2,0.164,0.187,0.093,0.667,0.232,0.008,0.244,0.388,0.039,0.069,0.081,0.179,0,0
Beijing,Fangshan District,Childhood Skewers • Barbecue (Changyang Store),4.8,1609,2987,30,Foods,41, MeituanRun ,80,38,0,39.765892,116.212074,1,1,1,1,131.3,660,146.8,0.505,0.495,0.098,0.132,0.224,0.196,0.169,0.181,0.158,0.683,0.151,0.008,0.222,0.416,0.045,0.073,0.075,0.169,0,0
Beijing,Chaoyang District,Porridge Fresh (Airport Store),4.8,2087,4105,17,Foods,31,MeituanFlash,78,0,0,40.04757,116.594876,1,1,1,1,345.1,7583,316.8,0.503,0.497,0.099,0.123,0.228,0.2,0.164,0.187,0.093,0.667,0.232,0.008,0.244,0.388,0.039,0.069,0.081,0.179,0,0
Beijing,Changping District,Daughter-in-law's shop durian lasagna cake,4.5,760,649,43,SweetCake,52, MeituanRun ,30,30,0,40.084663,116.350021,1,1,0,1,226.9,1689,204.2,0.505,0.495,0.106,0.121,0.221,0.195,0.162,0.195,0.116,0.733,0.133,0.018,0.222,0.415,0.045,0.073,0.075,0.17,0,0
Beijing,Shunyi District,Sweetheart Mill Flower Art Cake,5,98,70,114,SweetCake,70, MeituanRun ,0,0,0,40.102481,116.557333,1,1,0,0,132.4,1298,128.8,0.497,0.503,0.104,0.123,0.226,0.196,0.165,0.185,0.116,0.696,0.185,0.002,0.257,0.369,0.032,0.064,0.071,0.207,0,0
Beijing,Fangshan District,"Ziman (birthday cake, afternoon tea, dessert)",5,236,263,109,SweetCake,50, MeituanRun ,14,68,5,39.752959,116.212868,1,1,0,1,131.3,660,146.8,0.505,0.495,0.098,0.132,0.224,0.196,0.169,0.181,0.158,0.683,0.151,0.008,0.222,0.416,0.045,0.073,0.075,0.169,0,0
Beijing,Fengtai District,Fresh grain burrito king fried string,4.6,1631,3083,20,Foods,41,MeituanFlash,66,20,0,39.854052,116.381549,1,1,0,0,201.9,6602,259.5,0.499,0.501,0.098,0.125,0.226,0.196,0.167,0.188,0.12,0.759,0.116,0.005,0.246,0.363,0.048,0.077,0.09,0.176,0,0
Beijing,Chaoyang District,Hit character seafood hairy crab,4.3,589,562,76,Foods,56, MeituanRun ,4,0,0,39.900044,116.492285,1,1,1,1,345.1,7583,316.8,0.503,0.497,0.099,0.123,0.228,0.2,0.164,0.187,0.093,0.667,0.232,0.008,0.244,0.388,0.039,0.069,0.081,0.179,0,0
Beijing,Xicheng District,Zhang Liang Malatang (Fuchengmen Store),4.6,2691,3725,18,Foods,41,MeituanFlash,68,20,0,39.922319,116.354083,1,1,0,1,110.6,21888,263.1,0.505,0.495,0.101,0.12,0.226,0.201,0.161,0.192,0.098,0.682,0.213,0.007,0.245,0.392,0.034,0.065,0.061,0.203,0,0
Beijing,Daxing District,Jingchuan Boiling Temptation (No. B04-Kewei Food City Store),4.7,482,1074,22,Foods,52,MeituanFlash,55,20,0,39.786251,116.324577,1,1,0,0,199.4,1924,183.5,0.498,0.502,0.102,0.125,0.224,0.196,0.169,0.186,0.13,0.732,0.131,0.007,0.256,0.357,0.06,0.08,0.103,0.144,0,0
Beijing,Fengtai District,Old Huainan Beef Soup (No. 13 stall Kewei 12 District Food City Store),4.8,1849,1559,21,Foods,32,MeituanFlash,86,20,0,39.820509,116.285708,1,1,0,0,201.9,6602,259.5,0.499,0.501,0.098,0.125,0.226,0.196,0.167,0.188,0.12,0.759,0.116,0.005,0.246,0.363,0.048,0.077,0.09,0.176,0,0
Beijing,Shunyi District,37°C I fried chicken (Korean fried chicken),4.5,569,856,20,Foods,42,MeituanFlash,54,20,0,40.136678,116.638486,1,1,0,0,132.4,1298,128.8,0.497,0.503,0.104,0.123,0.226,0.196,0.165,0.185,0.116,0.696,0.185,0.002,0.257,0.369,0.032,0.064,0.071,0.207,0,0
Beijing,Fengtai District,Pirate Shrimp Rice · Quality Meal (West Bureau Store),4.9,2414,4235,32,Foods,45,MeituanFlash,81,20,0,39.854662,116.312435,1,1,0,1,201.9,6602,259.5,0.499,0.501,0.098,0.125,0.226,0.196,0.167,0.188,0.12,0.759,0.116,0.005,0.246,0.363,0.048,0.077,0.09,0.176,0,0
Beijing,Xicheng District,Gongcha (Xuanwu Store),4.9,861,800,12,DessertDrink,40,MeituanFlash,93,15,0,39.896797,116.374036,1,1,0,0,110.6,21888,263.1,0.505,0.495,0.101,0.12,0.226,0.201,0.161,0.192,0.098,0.682,0.213,0.007,0.245,0.392,0.034,0.065,0.061,0.203,0,0
Beijing,Fengtai District,Xiaogu Sister Spicy Mix ● Spicy Hot (Headquarters Base Store),4.9,9008,8420,23,Foods,40,MeituanFlash,68,15,0,39.823906,116.291838,1,1,0,1,201.9,6602,259.5,0.499,0.501,0.098,0.125,0.226,0.196,0.167,0.188,0.12,0.759,0.116,0.005,0.246,0.363,0.048,0.077,0.09,0.176,0,0
Beijing,Haidian District,Yang Mingyu Braised Chicken and Rice (1st Class-Beijing Haowilai Food City Store),4.6,2600,3855,23,Foods,41,MeituanFlash,67,20,0,39.910908,116.294611,1,1,0,1,313.2,7271,398,0.505,0.495,0.1,0.125,0.216,0.21,0.162,0.187,0.106,0.728,0.156,0.009,0.233,0.383,0.04,0.068,0.077,0.199,0,0
Beijing,Chaoyang District,Non-noisy light food rolls ● Fitness meals (Changying Store),4.9,4297,6290,24,Foods,48,MeituanFlash,52,0,0,39.925017,116.597737,1,1,0,1,345.1,7583,316.8,0.503,0.497,0.099,0.123,0.228,0.2,0.164,0.187,0.093,0.667,0.232,0.008,0.244,0.388,0.039,0.069,0.081,0.179,0,0
Beijing,Chaoyang District,Fapai 1855 (Wuyuanqiao Store),5,7,5,122,SweetCake,44, MeituanRun ,0,30,7,39.997373,116.513695,1,1,0,0,345.1,7583,316.8,0.503,0.497,0.099,0.123,0.228,0.2,0.164,0.187,0.093,0.667,0.232,0.008,0.244,0.388,0.039,0.069,0.081,0.179,0,0
Beijing,Daxing District,Gold hand spoon northeast family,4.2,2290,4911,23,Foods,47,MeituanFlash,46,20,0,39.786721,116.324278,1,1,0,1,199.4,1924,183.5,0.498,0.502,0.102,0.125,0.224,0.196,0.169,0.186,0.13,0.732,0.131,0.007,0.256,0.357,0.06,0.08,0.103,0.144,0,0
Beijing,Chaoyang District,Spicy and Spicy Fragrant Pot (Chaoyang Store),4.6,2272,3000,19,Foods,44,MeituanFlash,75,15,0,39.922162,116.442399,1,1,0,0,345.1,7583,316.8,0.503,0.497,0.099,0.123,0.228,0.2,0.164,0.187,0.093,0.667,0.232,0.008,0.244,0.388,0.039,0.069,0.081,0.179,0,0
Beijing,Chaoyang District,A crab and crab pot rice (Gaobeidian shop),4.5,1295,2669,26,Foods,40,MeituanFlash,80,20,0,39.903466,116.514875,1,1,0,0,345.1,7583,316.8,0.503,0.497,0.099,0.123,0.228,0.2,0.164,0.187,0.093,0.667,0.232,0.008,0.244,0.388,0.039,0.069,0.081,0.179,0,0
Beijing,Fangshan District,Gan Cha Du (Ole Store),5,25,13,17,Foods,42,MeituanFlash,0,20,0,39.76424,116.18633,1,1,0,0,131.3,660,146.8,0.505,0.495,0.098,0.132,0.224,0.196,0.169,0.181,0.158,0.683,0.151,0.008,0.222,0.416,0.045,0.073,0.075,0.169,0,0
Beijing,Xicheng District,Korean kimchi pork belly rice (Xinjiekou store),4.8,140,500,21,Foods,36,MeituanFlash,87,20,0,39.93828,116.37225,1,1,0,0,110.6,21888,263.1,0.505,0.495,0.101,0.12,0.226,0.201,0.161,0.192,0.098,0.682,0.213,0.007,0.245,0.392,0.034,0.065,0.061,0.203,0,0
Beijing,Dongcheng District,Old Mrs. Wang Xiaoxu (Hahajing Beixinqiao Store),4.6,152,300,37,Foods,39, MeituanRun ,93,43,5,39.940896,116.41829,1,1,1,1,70.9,16937,362.8,0.506,0.494,0.102,0.119,2.206,0.198,0.162,0.194,0.099,0.68,0.214,0.008,0.256,0.375,0.035,0.067,0.074,0.193,0,0
Beijing,Dongcheng District,Chengdu You Jiumei Mao Xuewang (No. 4 Food and Flavor Square Food City Store),4.5,118,500,27,Foods,38,MeituanFlash,59,20,0,39.94866,116.42082,1,1,0,0,70.9,16937,362.8,0.506,0.494,0.102,0.119,2.206,0.198,0.162,0.194,0.099,0.68,0.214,0.008,0.256,0.375,0.035,0.067,0.074,0.193,0,0
Beijing,Dongcheng District,NBS nobeth net red birthday cake,5,15,29,103,SweetCake,74, MeituanRun ,0,39,0,39.89419,116.44642,1,1,0,0,70.9,16937,362.8,0.506,0.494,0.102,0.119,2.206,0.198,0.162,0.194,0.099,0.68,0.214,0.008,0.256,0.375,0.035,0.067,0.074,0.193,0,0
Beijing,Dongcheng District,Niu Tea • Bird's Nest Milk Tea • Fresh Fruit Tea (Wangfujing Zhonghuan Store),5,92,100,47,FruitVegetables,50,MeituanFlash,67,15,0,39.912533,116.411085,1,1,0,1,70.9,16937,362.8,0.506,0.494,0.102,0.119,2.206,0.198,0.162,0.194,0.099,0.68,0.214,0.008,0.256,0.375,0.035,0.067,0.074,0.193,0,0
Beijing,Dongcheng District,Master Jim (Oriental Ginza Store),4.8,357,1000,34,SweetCake,40,MeituanFlash,80,20,0,39.939738,116.435065,1,1,0,1,70.9,16937,362.8,0.506,0.494,0.102,0.119,2.206,0.198,0.162,0.194,0.099,0.68,0.214,0.008,0.256,0.375,0.035,0.067,0.074,0.193,0,0
Beijing,Chaoyang District,Zhen Taste · Longjiang Pig's Feet Rice (Ritan Store),4.8,418,1000,23,Foods,52,MeituanFlash,60,0,0,39.919279,116.442331,1,1,0,0,345.1,7583,316.8,0.503,0.497,0.099,0.123,0.228,0.2,0.164,0.187,0.093,0.667,0.232,0.008,0.244,0.388,0.039,0.069,0.081,0.179,0,0
Beijing,Fengtai District,Obligi Chicken Korean Fried Chicken (Wanxing Building-No. 9-Aishang Restaurant),4.8,1853,3737,23,Foods,30,MeituanFlash,71,0,1,39.845096,116.338693,1,1,1,0,201.9,6602,259.5,0.499,0.501,0.098,0.125,0.226,0.196,0.167,0.188,0.12,0.759,0.116,0.005,0.246,0.363,0.048,0.077,0.09,0.176,0,0
Beijing,Haidian District,MAMA Handmade French Pizza (Zhongguancun Store),4.7,2997,2613,22,Foods,33,MeituanFlash,52,0,1,39.973287,116.321762,1,1,0,0,313.2,7271,398,0.505,0.495,0.1,0.125,0.216,0.21,0.162,0.187,0.106,0.728,0.156,0.009,0.233,0.383,0.04,0.068,0.077,0.199,0,0
Beijing,Haidian District,CoCo & Lucky Tea (Minda Store 1),4.9,965,2309,10,DessertDrink,30,MeituanFlash,93,0,0,39.94823,116.32389,1,1,1,0,313.2,7271,398,0.505,0.495,0.1,0.125,0.216,0.21,0.162,0.187,0.106,0.728,0.156,0.009,0.233,0.383,0.04,0.068,0.077,0.199,0,0
Beijing,Chaoyang District,Wang Ma Hand Tear Roast Rabbit · Sichuan Flavor Pavilion (National Exhibition Store),4.5,910,1000,52,Foods,70, MeituanRun ,35,30,6,39.964079,116.442426,1,1,0,1,345.1,7583,316.8,0.503,0.497,0.099,0.123,0.228,0.2,0.164,0.187,0.093,0.667,0.232,0.008,0.244,0.388,0.039,0.069,0.081,0.179,0,0
Beijing,Shunyi District,Wishing Star (Birthday Cake. Shunyi Store),5,966,1040,98,SweetCake,40, MeituanRun ,21,0,0,40.134867,116.641733,0,1,1,1,132.4,1298,128.8,0.497,0.503,0.104,0.123,0.226,0.196,0.165,0.185,0.116,0.696,0.185,0.002,0.257,0.369,0.032,0.064,0.071,0.207,0,0
Beijing,Chaoyang District,Pancake Zu Ten Special Baked Cold Noodles and Ten Eggs Patch (Panda Star Kitchen Food City Store at No.1),4.5,113,500,18,Foods,40,MeituanFlash,76,20,0,39.90654,116.44239,1,1,0,0,345.1,7583,316.8,0.503,0.497,0.099,0.123,0.228,0.2,0.164,0.187,0.093,0.667,0.232,0.008,0.244,0.388,0.039,0.069,0.081,0.179,0,0
Beijing,Haidian District,Yongshun Fried Chicken (Tongzeyuan Future Fresh Supermarket Store),4.1,170,288,29,Foods,44,MeituanFlash,100,20,1,40.105477,116.138997,1,1,0,0,313.2,7271,398,0.505,0.495,0.1,0.125,0.216,0.21,0.162,0.187,0.106,0.728,0.156,0.009,0.233,0.383,0.04,0.068,0.077,0.199,0,0
Beijing,Xicheng District,Kung Fu Emperor • Beef Stewed Box Lunch,4.7,1599,3000,23,Foods,44,MeituanFlash,82,20,0,39.91268,116.35236,1,1,0,1,110.6,21888,263.1,0.505,0.495,0.101,0.12,0.226,0.201,0.161,0.192,0.098,0.682,0.213,0.007,0.245,0.392,0.034,0.065,0.061,0.203,0,0
Beijing,Shunyi District,"Guest, your spicy chicken rack (Jintai Food City Store, No. 6)",4.6,257,1013,23,Foods,46,MeituanFlash,86,20,0,40.041695,116.593477,1,1,1,1,132.4,1298,128.8,0.497,0.503,0.104,0.123,0.226,0.196,0.165,0.185,0.116,0.696,0.185,0.002,0.257,0.369,0.032,0.064,0.071,0.207,0,0
Beijing,Daxing District,Hangzhou Xiaolongbao (Fuxing International Store),4.4,269,531,21,Foods,36,MeituanFlash,85,20,0,39.80261,116.50125,1,1,0,0,199.4,1924,183.5,0.498,0.502,0.102,0.125,0.224,0.196,0.169,0.186,0.13,0.732,0.131,0.007,0.256,0.357,0.06,0.08,0.103,0.144,0,0
Beijing,Chaoyang District,Yimeng Mountain Iron Pot Fried Chicken · Dashan Walking Chicken (Asian Games Village Store),4.9,990,3000,31,Foods,40, MeituanRun ,51,20,0,39.99313,116.40726,1,1,0,0,345.1,7583,316.8,0.503,0.497,0.099,0.123,0.228,0.2,0.164,0.187,0.093,0.667,0.232,0.008,0.244,0.388,0.039,0.069,0.081,0.179,0,0
Beijing,Haidian District,Yixuange Health Ginseng Chicken Soup (Wuluju Store),4.9,265,435,57,Foods,59, MeituanRun ,19,70,2,39.932915,116.277515,1,1,0,1,313.2,7271,398,0.505,0.495,0.1,0.125,0.216,0.21,0.162,0.187,0.106,0.728,0.156,0.009,0.233,0.383,0.04,0.068,0.077,0.199,0,0
Beijing,Xicheng District,Beijing Daoxiang Village (Xibianmen Store),5,68,100,73,DessertDrink,44, MeituanRun ,40,20,3,39.897498,116.353369,1,1,0,0,110.6,21888,263.1,0.505,0.495,0.101,0.12,0.226,0.201,0.161,0.192,0.098,0.682,0.213,0.007,0.245,0.392,0.034,0.065,0.061,0.203,0,0
Beijing,Chaoyang District,Linyi Iron Pot Fresh Fried Chicken · Yimeng Mountain Walking Chicken (Ciyun Temple Store),4.4,249,700,30,Foods,53, MeituanRun ,55,20,0,39.915389,116.495036,1,1,0,0,345.1,7583,316.8,0.503,0.497,0.099,0.123,0.228,0.2,0.164,0.187,0.093,0.667,0.232,0.008,0.244,0.388,0.039,0.069,0.081,0.179,0,0
Beijing,Chaoyang District,Honey Nest Dessert (Wangjing Store),4.6,358,800,43,DessertDrink,40, MeituanRun ,53,29,4,39.988976,116.477815,1,1,0,1,345.1,7583,316.8,0.503,0.497,0.099,0.123,0.228,0.2,0.164,0.187,0.093,0.667,0.232,0.008,0.244,0.388,0.039,0.069,0.081,0.179,0,0
Beijing,Fengtai District,Green Cake Shop,5,39,19,121,SweetCake,60, MeituanRun ,0,0,0,39.854078,116.381498,1,1,0,0,201.9,6602,259.5,0.499,0.501,0.098,0.125,0.226,0.196,0.167,0.188,0.12,0.759,0.116,0.005,0.246,0.363,0.048,0.077,0.09,0.176,0,0
Beijing,Chaoyang District,Eiffel Creative Cake Dessert Workshop (Birthday Cake · Animal Cream · High-end Customization),4.6,291,200,83,SweetCake,60, MeituanRun ,9,0,0,39.997853,116.418914,1,1,0,1,345.1,7583,316.8,0.503,0.497,0.099,0.123,0.228,0.2,0.164,0.187,0.093,0.667,0.232,0.008,0.244,0.388,0.039,0.069,0.081,0.179,0,0
Beijing,Xicheng District,Daoxiang Village (Beiwei Road),0,21,39,84,Foods,33,MeituanFlash,0,20,1,39.88361,116.39418,1,1,0,0,110.6,21888,263.1,0.505,0.495,0.101,0.12,0.226,0.201,0.161,0.192,0.098,0.682,0.213,0.007,0.245,0.392,0.034,0.065,0.061,0.203,0,0
Beijing,Fangshan District,Laojiu barbecue noodles,0,9,31,32,Foods,33,MeituanFlash,0,20,4,39.73015,116.115448,1,1,0,0,131.3,660,146.8,0.505,0.495,0.098,0.132,0.224,0.196,0.169,0.181,0.158,0.683,0.151,0.008,0.222,0.416,0.045,0.073,0.075,0.169,0,0
Beijing,Chaoyang District,Food Drunken Group Seafood • Crayfish · Hairy Crab · Secret Shrimp Tail,4.7,90,86,70,Foods,44, MeituanRun ,0,0,2,39.89466,116.4956,1,1,1,0,345.1,7583,316.8,0.503,0.497,0.099,0.123,0.228,0.2,0.164,0.187,0.093,0.667,0.232,0.008,0.244,0.388,0.039,0.069,0.081,0.179,0,0
Beijing,Haidian District,CoCo Rock Tea (Weigong Village Store),4.8,552,470,9,DessertDrink,44,MeituanFlash,0,15,0,39.95385,116.32163,1,1,0,0,313.2,7271,398,0.505,0.495,0.1,0.125,0.216,0.21,0.162,0.187,0.106,0.728,0.156,0.009,0.233,0.383,0.04,0.068,0.077,0.199,0,0
Beijing,Dongcheng District,Golden Million Roast Duck (Dongsi Store),4.8,2058,3000,29,Foods,40,MeituanFlash,75,20,0,39.92994,116.4175,1,1,0,1,70.9,16937,362.8,0.506,0.494,0.102,0.119,2.206,0.198,0.162,0.194,0.099,0.68,0.214,0.008,0.256,0.375,0.035,0.067,0.074,0.193,0,0
Beijing,Chaoyang District,Fresh Dumplings (Guomao Store),4.8,3238,7000,18,Foods,37,MeituanFlash,66,15,0,39.905978,116.443569,1,1,1,1,345.1,7583,316.8,0.503,0.497,0.099,0.123,0.228,0.2,0.164,0.187,0.093,0.667,0.232,0.008,0.244,0.388,0.039,0.069,0.081,0.179,0,0
Beijing,Daxing District,Gui Clan · Pepper Hemp Fragrant Fish & Mountain City Mao Xuewang (Mingfa Store),4.7,1620,2921,22,Foods,44,MeituanFlash,69,20,2,39.687685,116.325694,1,1,0,1,199.4,1924,183.5,0.498,0.502,0.102,0.125,0.224,0.196,0.169,0.186,0.13,0.732,0.131,0.007,0.256,0.357,0.06,0.08,0.103,0.144,0,0
Beijing,Chaoyang District,Shaxian Snacks (Heshenghui Store),4.7,973,1775,18,Foods,31,MeituanFlash,88,0,0,39.88787,116.48693,1,1,1,0,345.1,7583,316.8,0.503,0.497,0.099,0.123,0.228,0.2,0.164,0.187,0.093,0.667,0.232,0.008,0.244,0.388,0.039,0.069,0.081,0.179,0,0
Beijing,Chaoyang District,A string of incense on the side of the road (Sanlitun Store),3.8,14,100,41,Foods,56,MeituanFlash,0,20,0,39.93616,116.44434,1,1,0,1,345.1,7583,316.8,0.503,0.497,0.099,0.123,0.228,0.2,0.164,0.187,0.093,0.667,0.232,0.008,0.244,0.388,0.039,0.069,0.081,0.179,0,0
Beijing,Chaoyang District,Shibike Fried Chicken · Hamburg (Asian Games Village Store),4.3,609,400,20,Foods,42,MeituanFlash,69,20,0,39.979364,116.407941,1,1,0,0,345.1,7583,316.8,0.503,0.497,0.099,0.123,0.228,0.2,0.164,0.187,0.093,0.667,0.232,0.008,0.244,0.388,0.039,0.069,0.081,0.179,0,0
Beijing,Dongcheng District,Shuxiangyuan Spicy and Hot Pot (Anzhen Store),4.8,4167,3000,24,Foods,42,MeituanFlash,87,15,0,39.969394,116.410559,1,1,0,0,70.9,16937,362.8,0.506,0.494,0.102,0.119,2.206,0.198,0.162,0.194,0.099,0.68,0.214,0.008,0.256,0.375,0.035,0.067,0.074,0.193,0,0
Beijing,Xicheng District,Joy Street · Sugar Water Shop (Yigai Xiejie Shop),4.3,36,100,14,DessertDrink,46,MeituanFlash,91,15,3,39.939306,116.393537,1,1,0,0,110.6,21888,263.1,0.505,0.495,0.101,0.12,0.226,0.201,0.161,0.192,0.098,0.682,0.213,0.007,0.245,0.392,0.034,0.065,0.061,0.203,0,0
Beijing,Chaoyang District,"Full of rice, roast meat, curry rice",4.7,549,700,24,Foods,43,MeituanFlash,50,15,0,39.93412,116.46263,1,1,0,0,345.1,7583,316.8,0.503,0.497,0.099,0.123,0.228,0.2,0.164,0.187,0.093,0.667,0.232,0.008,0.244,0.388,0.039,0.069,0.081,0.179,0,0
Beijing,Chaoyang District,Huazi Porridge Rice (Guomao Store),4.9,976,3000,17,Foods,36,MeituanFlash,78,15,0,39.90641,116.44359,1,1,0,0,345.1,7583,316.8,0.503,0.497,0.099,0.123,0.228,0.2,0.164,0.187,0.093,0.667,0.232,0.008,0.244,0.388,0.039,0.069,0.081,0.179,0,0
Beijing,Chaoyang District,Tenglan Japanese curry egg-wrapped rice (grade 3-different food city store),4.9,3209,4444,23,Foods,46,MeituanFlash,66,20,0,39.919472,116.442676,1,1,0,1,345.1,7583,316.8,0.503,0.497,0.099,0.123,0.228,0.2,0.164,0.187,0.093,0.667,0.232,0.008,0.244,0.388,0.039,0.069,0.081,0.179,0,0
Beijing,Chaoyang District,Wangjing Barbecue · Small Waist · Crayfish (Small Camp),4.9,1859,2938,33,Foods,40, MeituanRun ,55,20,0,39.999235,116.422545,1,1,0,0,345.1,7583,316.8,0.503,0.497,0.099,0.123,0.228,0.2,0.164,0.187,0.093,0.667,0.232,0.008,0.244,0.388,0.039,0.069,0.081,0.179,0,0
Beijing,Dongcheng District,Taixia Pastry • Baked Now Better to Eat (Guijie Store),4.2,139,400,43,DessertDrink,30,MeituanFlash,85,20,1.9,39.94084,116.42357,0,1,1,1,70.9,16937,362.8,0.506,0.494,0.102,0.119,2.206,0.198,0.162,0.194,0.099,0.68,0.214,0.008,0.256,0.375,0.035,0.067,0.074,0.193,0,0
Beijing,Xicheng District,Grandma Niu Nai (Fuxing Store),4.9,383,900,13,Foods,40,MeituanFlash,89,20,0,39.90657,116.35244,1,1,1,0,110.6,21888,263.1,0.505,0.495,0.101,0.12,0.226,0.201,0.161,0.192,0.098,0.682,0.213,0.007,0.245,0.392,0.034,0.065,0.061,0.203,0,0
Beijing,Chaoyang District,Bullfrog Princess (No. B4-Subang Food City Store),4.9,99,200,43,Foods,48, MeituanRun ,58,30,1,39.91515,116.49277,1,1,0,0,345.1,7583,316.8,0.503,0.497,0.099,0.123,0.228,0.2,0.164,0.187,0.093,0.667,0.232,0.008,0.244,0.388,0.039,0.069,0.081,0.179,0,0
Beijing,Fangshan District,Thousand guests · Light salad · Sandwich,4.6,1013,1111,22,Foods,30,MeituanFlash,86,20,2,39.733025,116.164247,1,0,0,1,131.3,660,146.8,0.505,0.495,0.098,0.132,0.224,0.196,0.169,0.181,0.158,0.683,0.151,0.008,0.222,0.416,0.045,0.073,0.075,0.169,0,0
Beijing,Chaoyang District,"The food is available and crispy chicken barbecue rice (K Cool Food City Store, Grade 9)",4.7,3363,5483,19,Foods,34,MeituanFlash,75,20,0,40.033521,116.41953,1,1,0,1,345.1,7583,316.8,0.503,0.497,0.099,0.123,0.228,0.2,0.164,0.187,0.093,0.667,0.232,0.008,0.244,0.388,0.039,0.069,0.081,0.179,0,0
Beijing,Fengtai District,Jiuxiang Authentic Oven Egg Cake (No. 10-Tianyi Food City Store),4.9,1579,6573,17,Foods,37,MeituanFlash,77,20,0,39.84563,116.36603,0,1,1,1,201.9,6602,259.5,0.499,0.501,0.098,0.125,0.226,0.196,0.167,0.188,0.12,0.759,0.116,0.005,0.246,0.363,0.048,0.077,0.09,0.176,0,0
Beijing,Chaoyang District,Donkey Head Donkey Meat Fire (No.6 Store-Gumran Food City Store),4.5,2797,3000,18,Foods,40,MeituanFlash,74,20,0,39.972768,116.401137,1,1,0,1,345.1,7583,316.8,0.503,0.497,0.099,0.123,0.228,0.2,0.164,0.187,0.093,0.667,0.232,0.008,0.244,0.388,0.039,0.069,0.081,0.179,0,0
Beijing,Xicheng District,Cha Baidao (Guang'anmen Tianhong Store),4.8,1729,9000,21,DessertDrink,47,MeituanFlash,45,20,2,39.88865,116.34148,1,1,0,0,110.6,21888,263.1,0.505,0.495,0.101,0.12,0.226,0.201,0.161,0.192,0.098,0.682,0.213,0.007,0.245,0.392,0.034,0.065,0.061,0.203,0,0
Beijing,Shunyi District,Lei Chuwei • Small Bowl of Vegetables • Rice with Pepper (Dingshun Jiayuan Store),4.8,872,2118,23,Foods,40,MeituanFlash,90,20,0,40.083969,116.667271,1,1,0,0,132.4,1298,128.8,0.497,0.503,0.104,0.123,0.226,0.196,0.165,0.185,0.116,0.696,0.185,0.002,0.257,0.369,0.032,0.064,0.071,0.207,0,0
Beijing,Dongcheng District,"Gulou Jinji (rinse meat, barbecue, cooked food)",0,15,30,23,Foods,44, MeituanRun ,0,25,0,39.93986,116.40827,1,1,0,1,70.9,16937,362.8,0.506,0.494,0.102,0.119,2.206,0.198,0.162,0.194,0.099,0.68,0.214,0.008,0.256,0.375,0.035,0.067,0.074,0.193,0,0
Beijing,Xicheng District,Honey Snow Ice City (Houhai Store),5,97,400,9,DessertDrink,44,MeituanFlash,89,20,0,39.93926,116.39344,1,1,0,0,110.6,21888,263.1,0.505,0.495,0.101,0.12,0.226,0.201,0.161,0.192,0.098,0.682,0.213,0.007,0.245,0.392,0.034,0.065,0.061,0.203,0,0
Beijing,Tongzhou District,Coco Mood Tea (Tuqiao Store),4.9,2274,5024,13,DessertDrink,36,MeituanFlash,88,0,0,39.871369,116.69395,1,1,0,0,184,2030,234.2,0.504,0.496,0.104,0.122,0.221,0.197,0.165,0.192,0.153,0.727,0.117,0.003,0.247,0.336,0.05,0.071,0.099,0.197,0,0
Beijing,Haidian District,Oral Fragrant Pancake Special Baked Cold Noodles,4.2,120,30,15,Foods,30,MeituanFlash,88,15,3,39.95816,116.359205,1,1,0,0,313.2,7271,398,0.505,0.495,0.1,0.125,0.216,0.21,0.162,0.187,0.106,0.728,0.156,0.009,0.233,0.383,0.04,0.068,0.077,0.199,0,0
Beijing,Chaoyang District,Yiguanxian · Salmon Japanese Sushi (Shuangjing Shop),4.4,672,1000,52,Foods,60,MeituanFlash,65,20,0,39.892928,116.459245,1,1,0,1,345.1,7583,316.8,0.503,0.497,0.099,0.123,0.228,0.2,0.164,0.187,0.093,0.667,0.232,0.008,0.244,0.388,0.039,0.069,0.081,0.179,0,0
Beijing,Chaoyang District,"Rice No, Delicate Small Dishes, Stewed Soup, Fresh Porridge, Snacks and Snacks (No. A07 Food City Store)",4.8,3290,3352,22,Foods,40,MeituanFlash,59,20,0,39.919495,116.443042,1,1,0,0,345.1,7583,316.8,0.503,0.497,0.099,0.123,0.228,0.2,0.164,0.187,0.093,0.667,0.232,0.008,0.244,0.388,0.039,0.069,0.081,0.179,0,0
Beijing,Dongcheng District,Pirate Shrimp Rice · Quality Meal (Anzhen Store),4.8,388,1000,32,Foods,40,MeituanFlash,89,20,0,39.969422,116.410833,1,1,0,0,70.9,16937,362.8,0.506,0.494,0.102,0.119,2.206,0.198,0.162,0.194,0.099,0.68,0.214,0.008,0.256,0.375,0.035,0.067,0.074,0.193,0,0
Beijing,Chaoyang District,Wangjing Barbecue • Small Waist (Wheat Shop),5,70,200,27,Foods,41, MeituanRun ,44,38,5,39.94508,116.47136,1,1,1,0,345.1,7583,316.8,0.503,0.497,0.099,0.123,0.228,0.2,0.164,0.187,0.093,0.667,0.232,0.008,0.244,0.388,0.039,0.069,0.081,0.179,0,0
Beijing,Xicheng District,Weixiangduo Cake Shop (Birthday Cake),5,13,42,189,SweetCake,44, MeituanRun ,0,30,0,39.87361,116.36773,1,1,0,0,110.6,21888,263.1,0.505,0.495,0.101,0.12,0.226,0.201,0.161,0.192,0.098,0.682,0.213,0.007,0.245,0.392,0.034,0.065,0.061,0.203,0,0
Beijing,Haidian District,Happy Lemon (Weigong Village Store),4.7,194,283,16,DessertDrink,32,MeituanFlash,100,15,0,39.953342,116.320591,1,1,0,0,313.2,7271,398,0.505,0.495,0.1,0.125,0.216,0.21,0.162,0.187,0.106,0.728,0.156,0.009,0.233,0.383,0.04,0.068,0.077,0.199,0,0
Beijing,Xicheng District,Beijing Daoxiang Village (the main store of life),4.8,214,100,76,MarketConvenience,41, MeituanRun ,43,20,5,39.884769,116.338436,1,1,0,0,110.6,21888,263.1,0.505,0.495,0.101,0.12,0.226,0.201,0.161,0.192,0.098,0.682,0.213,0.007,0.245,0.392,0.034,0.065,0.061,0.203,0,0
Beijing,Chaoyang District,Barbecue Chicken Chop Rice (No. A05 Food City Store),4.8,319,400,22,Foods,35,MeituanFlash,73,20,0,39.91948,116.44378,0,1,1,0,345.1,7583,316.8,0.503,0.497,0.099,0.123,0.228,0.2,0.164,0.187,0.093,0.667,0.232,0.008,0.244,0.388,0.039,0.069,0.081,0.179,0,0
Beijing,Xicheng District,Book also burns Xiancao (Xizhimen Kaide Store),4.8,1244,4000,15,DessertDrink,49,MeituanFlash,64,20,0,39.94198,116.35262,1,1,0,1,110.6,21888,263.1,0.505,0.495,0.101,0.12,0.226,0.201,0.161,0.192,0.098,0.682,0.213,0.007,0.245,0.392,0.034,0.065,0.061,0.203,0,0
Beijing,Haidian District,Shrimp wow · Boasted Shrimp Tail Rice (Si Dao Kou Store),4.7,1196,4000,23,Foods,36,MeituanFlash,86,0,0,39.96047,116.34543,1,1,0,0,313.2,7271,398,0.505,0.495,0.1,0.125,0.216,0.21,0.162,0.187,0.106,0.728,0.156,0.009,0.233,0.383,0.04,0.068,0.077,0.199,0,0
Beijing,Dongcheng District,"Hi Dumplings Quality Seafood Dumplings (Panda Star Kitchen Food City Store, No. A18)",4.9,638,600,16,Foods,41,MeituanFlash,63,15,0,39.940597,116.437405,1,1,0,0,70.9,16937,362.8,0.506,0.494,0.102,0.119,2.206,0.198,0.162,0.194,0.099,0.68,0.214,0.008,0.256,0.375,0.035,0.067,0.074,0.193,0,0
Beijing,Fengtai District,Steam live seafood dumplings with you at the seaside,0,29,72,50,Foods,41,MeituanFlash,0,20,0,39.82433,116.29837,1,1,0,1,201.9,6602,259.5,0.499,0.501,0.098,0.125,0.226,0.196,0.167,0.188,0.12,0.759,0.116,0.005,0.246,0.363,0.048,0.077,0.09,0.176,0,0
Beijing,Shunyi District,Young people barbecue,4.3,67,227,31,Foods,35, MeituanRun ,33,50,2,40.13335,116.65169,1,1,1,0,132.4,1298,128.8,0.497,0.503,0.104,0.123,0.226,0.196,0.165,0.185,0.116,0.696,0.185,0.002,0.257,0.369,0.032,0.064,0.071,0.207,0,0
Beijing,Xicheng District,Bao Ji Pastry Honey Cake (Tao Ranting Store),4.7,212,900,29,SweetCake,33,MeituanFlash,68,25,0,39.88086,116.373759,1,1,0,0,110.6,21888,263.1,0.505,0.495,0.101,0.12,0.226,0.201,0.161,0.192,0.098,0.682,0.213,0.007,0.245,0.392,0.034,0.065,0.061,0.203,0,0
Beijing,Chaoyang District,"Wangjing charcoal roast, small waist, crayfish (Happy Valley store)",4,607,2074,35,Foods,35, MeituanRun ,43,20,0,39.859107,116.490923,1,1,1,0,345.1,7583,316.8,0.503,0.497,0.099,0.123,0.228,0.2,0.164,0.187,0.093,0.667,0.232,0.008,0.244,0.388,0.039,0.069,0.081,0.179,0,0
Beijing,Dongcheng District,"Wang Da Box, Fried Rice with Fired Eggs (Panda Star Kitchen Food City Store, No. B10)",4.9,2875,5000,18,Foods,37,MeituanFlash,80,0,0,39.94027,116.43748,0,1,1,1,70.9,16937,362.8,0.506,0.494,0.102,0.119,2.206,0.198,0.162,0.194,0.099,0.68,0.214,0.008,0.256,0.375,0.035,0.067,0.074,0.193,0,0
Beijing,Chaoyang District,COCO Tea Drink JOANNA (Shuangjing Store),4.4,1882,3576,13,DessertDrink,30,MeituanFlash,92,15,1,39.884299,116.459368,1,1,0,0,345.1,7583,316.8,0.503,0.497,0.099,0.123,0.228,0.2,0.164,0.187,0.093,0.667,0.232,0.008,0.244,0.388,0.039,0.069,0.081,0.179,0,0
Beijing,Chaoyang District,Gangji Dessert (Caiman Street Store),4.7,693,1083,49,DessertDrink,45, MeituanRun ,55,25,3,39.916991,116.53707,1,1,1,1,345.1,7583,316.8,0.503,0.497,0.099,0.123,0.228,0.2,0.164,0.187,0.093,0.667,0.232,0.008,0.244,0.388,0.039,0.069,0.081,0.179,0,0
Beijing,Changping District,Lemon Workshop,5,34,82,15,DessertDrink,31,MeituanFlash,0,20,1,40.22327,116.24293,1,1,0,0,226.9,1689,204.2,0.505,0.495,0.106,0.121,0.221,0.195,0.162,0.195,0.116,0.733,0.133,0.018,0.222,0.415,0.045,0.073,0.075,0.17,0,0
Beijing,Chaoyang District,Xianshu Language • Light Food (Shuangjing Store),4.9,159,698,23,Foods,41,MeituanFlash,0,15,2.5,39.89397,116.45976,1,0,0,0,345.1,7583,316.8,0.503,0.497,0.099,0.123,0.228,0.2,0.164,0.187,0.093,0.667,0.232,0.008,0.244,0.388,0.039,0.069,0.081,0.179,0,0
Beijing,Chaoyang District,Brothers barbecue,4.9,131,292,32,Foods,35, MeituanRun ,93,20,0,39.981904,116.409563,1,1,1,0,345.1,7583,316.8,0.503,0.497,0.099,0.123,0.228,0.2,0.164,0.187,0.093,0.667,0.232,0.008,0.244,0.388,0.039,0.069,0.081,0.179,0,0
Beijing,Dongcheng District,Ali June • Light Salad (Dongsi Store),4.9,2562,3204,25,Foods,37,MeituanFlash,86,0,2,39.935158,116.4174,1,1,0,1,70.9,16937,362.8,0.506,0.494,0.102,0.119,2.206,0.198,0.162,0.194,0.099,0.68,0.214,0.008,0.256,0.375,0.035,0.067,0.074,0.193,0,0
Beijing,Chaoyang District,Shaohua Alley Handmade Creative Cake,5,164,400,106,SweetCake,60, MeituanRun ,0,0,0,39.89958,116.47098,1,1,1,1,345.1,7583,316.8,0.503,0.497,0.099,0.123,0.228,0.2,0.164,0.187,0.093,0.667,0.232,0.008,0.244,0.388,0.039,0.069,0.081,0.179,0,0
Beijing,Tongzhou District,MissBlue Birthday Cake Customization (Tongzhou Wanda Store),4.9,2007,2536,84,SweetCake,40, MeituanRun ,39,0,0,39.90447,116.63906,1,1,0,1,184,2030,234.2,0.504,0.496,0.104,0.122,0.221,0.197,0.165,0.192,0.153,0.727,0.117,0.003,0.247,0.336,0.05,0.071,0.099,0.197,0,0
Beijing,Chaoyang District,Paiyue Square · Dessert · Cake (Ritan Store),4.5,409,675,181,SweetCake,50, MeituanRun ,0,30,5,39.918225,116.443368,1,1,0,1,345.1,7583,316.8,0.503,0.497,0.099,0.123,0.228,0.2,0.164,0.187,0.093,0.667,0.232,0.008,0.244,0.388,0.039,0.069,0.081,0.179,0,0
Beijing,Fangshan District,Sweet Xin Fang (birthday cake),5,138,47,131,SweetCake,59,Merchant,0,0,0,39.615028,115.96476,1,1,0,0,131.3,660,146.8,0.505,0.495,0.098,0.132,0.224,0.196,0.169,0.181,0.158,0.683,0.151,0.008,0.222,0.416,0.045,0.073,0.075,0.169,0,0
Beijing,Chaoyang District,"Macau Portuguese Dream, Pork Chop Bag (Chaoyangmen Starfish Food City Store, No. B12)",4.9,425,2202,29,Foods,40,MeituanFlash,65,20,0,39.924812,116.4387,1,1,0,0,345.1,7583,316.8,0.503,0.497,0.099,0.123,0.228,0.2,0.164,0.187,0.093,0.667,0.232,0.008,0.244,0.388,0.039,0.069,0.081,0.179,0,0
Beijing,Haidian District,Looking for a light and light and healthy meal (Marriott Food City Store at the 1st stall),4.8,2803,4884,24,Foods,40,MeituanFlash,81,20,0,40.041228,116.332504,1,1,0,0,313.2,7271,398,0.505,0.495,0.1,0.125,0.216,0.21,0.162,0.187,0.106,0.728,0.156,0.009,0.233,0.383,0.04,0.068,0.077,0.199,0,0
Beijing,Daxing District,Wow frog fish · boiled fish bullfrog · Sichuan cuisine (Jiugongdian),5,263,210,48,Foods,45, MeituanRun ,52,20,2,39.79839,116.46416,1,1,1,0,199.4,1924,183.5,0.498,0.502,0.102,0.125,0.224,0.196,0.169,0.186,0.13,0.732,0.131,0.007,0.256,0.357,0.06,0.08,0.103,0.144,0,0
Beijing,Tongzhou District,Fushun Spicy Mix (No. 13 Zhiwei Meichu Food City Store),4.6,540,1132,21,Foods,32,MeituanFlash,92,20,0,39.92724,116.64677,1,1,0,0,184,2030,234.2,0.504,0.496,0.104,0.122,0.221,0.197,0.165,0.192,0.153,0.727,0.117,0.003,0.247,0.336,0.05,0.071,0.099,0.197,0,0
Beijing,Fengtai District,Su Xiaoxi Fried String (Liuliqiao Store),4.7,1226,1802,25,Foods,30, MeituanRun ,52,20,0,39.88076,116.32055,1,1,1,0,201.9,6602,259.5,0.499,0.501,0.098,0.125,0.226,0.196,0.167,0.188,0.12,0.759,0.116,0.005,0.246,0.363,0.048,0.077,0.09,0.176,0,0
Beijing,Haidian District,Asana Japanese Curry Egg-wrapped Rice (Qinghe Store),4.9,4568,2955,20,Foods,42,MeituanFlash,0,0,2,40.040286,116.331982,1,1,0,1,313.2,7271,398,0.505,0.495,0.1,0.125,0.216,0.21,0.162,0.187,0.106,0.728,0.156,0.009,0.233,0.383,0.04,0.068,0.077,0.199,0,0
Beijing,Haidian District,Jetson Milk Dessert Family (Vientiane Huidian),4,423,531,42,DessertDrink,39,MeituanFlash,25,20,1,40.030463,116.33615,1,1,0,1,313.2,7271,398,0.505,0.495,0.1,0.125,0.216,0.21,0.162,0.187,0.106,0.728,0.156,0.009,0.233,0.383,0.04,0.068,0.077,0.199,0,0
Beijing,Changping District,Old Beijing Baozi (Xinlongjia Supermarket Store),4.6,132,416,15,Foods,44,MeituanFlash,88,20,0,40.224162,116.233763,1,1,0,0,226.9,1689,204.2,0.505,0.495,0.106,0.121,0.221,0.195,0.162,0.195,0.116,0.733,0.133,0.018,0.222,0.415,0.045,0.073,0.075,0.17,0,0
Beijing,Dongcheng District,Cha Bai Dao (Guijie Store),4.6,634,3000,21,DessertDrink,40,MeituanFlash,81,20,3,39.940911,116.422406,1,1,0,0,70.9,16937,362.8,0.506,0.494,0.102,0.119,2.206,0.198,0.162,0.194,0.099,0.68,0.214,0.008,0.256,0.375,0.035,0.067,0.074,0.193,0,0
Beijing,Dongcheng District,Youth string (barbecue),4.9,586,502,23,Foods,30,MeituanFlash,86,15,0,39.898518,116.42708,1,1,1,1,70.9,16937,362.8,0.506,0.494,0.102,0.119,2.206,0.198,0.162,0.194,0.099,0.68,0.214,0.008,0.256,0.375,0.035,0.067,0.074,0.193,0,0
Beijing,Chaoyang District,Shaanxi Liangpi Wuhan Regan Noodles (No. 5 Fuwang Shangchao Food City Store),4.4,110,313,20,Foods,30,MeituanFlash,67,20,1.5,39.96852,116.43964,1,1,0,0,345.1,7583,316.8,0.503,0.497,0.099,0.123,0.228,0.2,0.164,0.187,0.093,0.667,0.232,0.008,0.244,0.388,0.039,0.069,0.081,0.179,0,0
Beijing,Haidian District,Duole Day (Haidian Yuejie Store),4.8,621,1407,52,Foods,41,MeituanFlash,56,20,1,40.089354,116.232133,1,1,0,0,313.2,7271,398,0.505,0.495,0.1,0.125,0.216,0.21,0.162,0.187,0.106,0.728,0.156,0.009,0.233,0.383,0.04,0.068,0.077,0.199,0,0
Beijing,Chaoyang District,Lan Mai Bread (Bread. Dessert. Sanlitun Store),4.3,88,97,72,SweetCake,31,MeituanFlash,9,38,0,39.932985,116.453488,1,1,1,1,345.1,7583,316.8,0.503,0.497,0.099,0.123,0.228,0.2,0.164,0.187,0.093,0.667,0.232,0.008,0.244,0.388,0.039,0.069,0.081,0.179,0,0
Beijing,Chaoyang District,Eighteen Shrimp Art · Crayfish · Fish Frog · Barbecue (No. 3-Yuanwei Gourmet Shop),4.6,18,35,31,Foods,45, MeituanRun ,0,0,5,39.919105,116.45137,1,1,1,0,345.1,7583,316.8,0.503,0.497,0.099,0.123,0.228,0.2,0.164,0.187,0.093,0.667,0.232,0.008,0.244,0.388,0.039,0.069,0.081,0.179,0,0
Beijing,Xicheng District,四脚功夫肘•豪横隆江猪脚饭,3.7,601,1000,23,Foods,36,MeituanFlash,91,15,0,39.901736,116.366336,1,1,0,1,110.6,21888,263.1,0.505,0.495,0.101,0.12,0.226,0.201,0.161,0.192,0.098,0.682,0.213,0.007,0.245,0.392,0.034,0.065,0.061,0.203,0,0
Beijing,Fengtai District,黄宗师黄焖鸡米饭(第8号档口庖丁Foods城店),4.9,5194,4478,23,Foods,40,MeituanFlash,78,20,0,39.823912,116.291505,1,1,0,1,201.9,6602,259.5,0.499,0.501,0.098,0.125,0.226,0.196,0.167,0.188,0.12,0.759,0.116,0.005,0.246,0.363,0.048,0.077,0.09,0.176,0,0
Beijing,Dongcheng District,Miss·Cake,4.4,116,100,46,Foods,45, MeituanRun ,5,200,0,39.896239,116.435695,1,1,0,0,70.9,16937,362.8,0.506,0.494,0.102,0.119,2.206,0.198,0.162,0.194,0.099,0.68,0.214,0.008,0.256,0.375,0.035,0.067,0.074,0.193,0,0
Beijing,Haidian District,Small pursed donkey donkey meat restaurant,4.7,213,646,28,Foods,34,MeituanFlash,81,20,1,40.115964,116.224396,1,1,0,0,313.2,7271,398,0.505,0.495,0.1,0.125,0.216,0.21,0.162,0.187,0.106,0.728,0.156,0.009,0.233,0.383,0.04,0.068,0.077,0.199,0,0
Beijing,Changping District,Barbecue and rice. Braised chicken in casserole (Lujin World City Store),4.9,761,859,22,Foods,30,MeituanFlash,94,15,0,40.207218,116.291179,1,1,0,0,226.9,1689,204.2,0.505,0.495,0.106,0.121,0.221,0.195,0.162,0.195,0.116,0.733,0.133,0.018,0.222,0.415,0.045,0.073,0.075,0.17,0,0
Beijing,Daxing District,Yongshun Fried Chicken (Caiyu Direct Store),4,67,167,35,Foods,30,MeituanFlash,0,30,1,39.658464,116.641221,1,1,0,0,199.4,1924,183.5,0.498,0.502,0.102,0.125,0.224,0.196,0.169,0.186,0.13,0.732,0.131,0.007,0.256,0.357,0.06,0.08,0.103,0.144,0,0
Beijing,Chaoyang District,Duniang Hot Pot • Maocai • Chongqing Noodles (Jianxiangqiao Store),5,793,1320,25,Foods,40,MeituanFlash,76,20,0,39.981348,116.380794,1,1,0,1,345.1,7583,316.8,0.503,0.497,0.099,0.123,0.228,0.2,0.164,0.187,0.093,0.667,0.232,0.008,0.244,0.388,0.039,0.069,0.081,0.179,0,0
Beijing,Haidian District,Shaye Light Food (Zengguang Road Store),4.8,1423,2217,27,Foods,40,MeituanFlash,89,20,0,39.928373,116.322593,1,1,0,1,313.2,7271,398,0.505,0.495,0.1,0.125,0.216,0.21,0.162,0.187,0.106,0.728,0.156,0.009,0.233,0.383,0.04,0.068,0.077,0.199,0,0
Beijing,Shunyi District,Wangjing Barbecue · Small Waist · Crayfish,4.8,913,828,27,Foods,40, MeituanRun ,60,30,0,40.13681,116.63815,1,1,0,0,132.4,1298,128.8,0.497,0.503,0.104,0.123,0.226,0.196,0.165,0.185,0.116,0.696,0.185,0.002,0.257,0.369,0.032,0.064,0.071,0.207,0,0
Beijing,Xicheng District,NV Calorie Light Fitness Meal (Xisan Store),4.7,2367,2000,23,Foods,40,MeituanFlash,81,20,0,39.918053,116.373857,1,1,0,0,110.6,21888,263.1,0.505,0.495,0.101,0.12,0.226,0.201,0.161,0.192,0.098,0.682,0.213,0.007,0.245,0.392,0.034,0.065,0.061,0.203,0,0
Beijing,Chaoyang District,Kuafu Fried String Company (Barbecue · Jiamo · Forest Garden Gourmet Plaza Store),4.6,824,1232,23,Foods,37,MeituanFlash,73,20,0,39.988152,116.424646,1,1,0,1,345.1,7583,316.8,0.503,0.497,0.099,0.123,0.228,0.2,0.164,0.187,0.093,0.667,0.232,0.008,0.244,0.388,0.039,0.069,0.081,0.179,0,0
Beijing,Haidian District,Henan Authentic Oven Egg Cake (Huatian Store),4.9,670,2000,17,Foods,41,MeituanFlash,88,20,0,39.897976,116.336075,1,1,0,1,313.2,7271,398,0.505,0.495,0.1,0.125,0.216,0.21,0.162,0.187,0.106,0.728,0.156,0.009,0.233,0.383,0.04,0.068,0.077,0.199,0,0
Beijing,Fangshan District,Sweet Moment (Changgou Town Store),0,4,5,68,Foods,50,Merchant,0,0,0,39.57324,115.89658,1,1,0,0,131.3,660,146.8,0.505,0.495,0.098,0.132,0.224,0.196,0.169,0.181,0.158,0.683,0.151,0.008,0.222,0.416,0.045,0.073,0.075,0.169,0,0
Beijing,Changping District,Light-year eclipse,4.6,312,800,28,Foods,48,Merchant,9,20,0,40.182654,116.163899,1,1,0,0,226.9,1689,204.2,0.505,0.495,0.106,0.121,0.221,0.195,0.162,0.195,0.116,0.733,0.133,0.018,0.222,0.415,0.045,0.073,0.075,0.17,0,0
Beijing,Chaoyang District,Shaye Light Food (Jinsong Store),4.9,4916,5809,24,Foods,48,MeituanFlash,82,20,0,39.886164,116.448956,1,1,0,1,345.1,7583,316.8,0.503,0.497,0.099,0.123,0.228,0.2,0.164,0.187,0.093,0.667,0.232,0.008,0.244,0.388,0.039,0.069,0.081,0.179,0,0
Beijing,Chaoyang District,Jiujiu Duck (South Beach Store),4.8,143,328,23,Foods,56,MeituanFlash,100,20,2,39.997395,116.376305,1,1,0,1,345.1,7583,316.8,0.503,0.497,0.099,0.123,0.228,0.2,0.164,0.187,0.093,0.667,0.232,0.008,0.244,0.388,0.039,0.069,0.081,0.179,0,0
Beijing,Tongzhou District,Pizza Revolution (Majuqiao Store),4.8,2033,2194,24,Foods,36, MeituanRun ,58,0,0,39.751921,116.541623,0,1,1,0,184,2030,234.2,0.504,0.496,0.104,0.122,0.221,0.197,0.165,0.192,0.153,0.727,0.117,0.003,0.247,0.336,0.05,0.071,0.099,0.197,0,0
Beijing,Changping District,Five sides of tender cattle,4.9,488,1056,19,Foods,35,MeituanFlash,96,20,1,40.206824,116.292044,1,1,0,0,226.9,1689,204.2,0.505,0.495,0.106,0.121,0.221,0.195,0.162,0.195,0.116,0.733,0.133,0.018,0.222,0.415,0.045,0.073,0.075,0.17,0,0
Beijing,Changping District,Niuba-Hand-made Roasted Beef Fort,4.7,300,663,35,Foods,57, MeituanRun ,27,20,0,40.234051,116.128773,1,1,0,1,226.9,1689,204.2,0.505,0.495,0.106,0.121,0.221,0.195,0.162,0.195,0.116,0.733,0.133,0.018,0.222,0.415,0.045,0.073,0.075,0.17,0,0
Beijing,Changping District,Hejian donkey meat on fire,4.7,390,611,17,Foods,30,MeituanFlash,96,25,2.5,40.223484,116.251466,1,1,1,0,226.9,1689,204.2,0.505,0.495,0.106,0.121,0.221,0.195,0.162,0.195,0.116,0.733,0.133,0.018,0.222,0.415,0.045,0.073,0.075,0.17,0,0
Beijing,Haidian District,Eighteen Shrimp Art · Crayfish · Fish Frog · Barbecue (No. 16-Blue Whale Cloud Kitchen Food City Store),5,204,495,44,Foods,40, MeituanRun ,0,39,3,40.040301,116.331901,1,1,1,0,313.2,7271,398,0.505,0.495,0.1,0.125,0.216,0.21,0.162,0.187,0.106,0.728,0.156,0.009,0.233,0.383,0.04,0.068,0.077,0.199,0,0
Beijing,Dongcheng District,Gonghe's Covenant · Creative Light Food (Dongzhimen Store),4.9,1615,1653,29,Foods,40,MeituanFlash,70,20,0,39.940319,116.437477,1,1,0,1,70.9,16937,362.8,0.506,0.494,0.102,0.119,2.206,0.198,0.162,0.194,0.099,0.68,0.214,0.008,0.256,0.375,0.035,0.067,0.074,0.193,0,0
Beijing,Changping District,Ruixing Coffee luckincoffee (Changping Sunshine Commercial Street Store),4.9,913,2475,19,DessertDrink,38,Merchant,98,29,0,40.222822,116.242917,1,1,0,0,226.9,1689,204.2,0.505,0.495,0.106,0.121,0.221,0.195,0.162,0.195,0.116,0.733,0.133,0.018,0.222,0.415,0.045,0.073,0.075,0.17,0,0
Beijing,Changping District,Daoxiang Village,4.5,260,412,52,MarketConvenience,30, MeituanRun ,68,20,4,40.14915,116.29287,1,1,0,0,226.9,1689,204.2,0.505,0.495,0.106,0.121,0.221,0.195,0.162,0.195,0.116,0.733,0.133,0.018,0.222,0.415,0.045,0.073,0.075,0.17,0,0
Beijing,Dongcheng District,Shu Xiaoran Spicy Spicy Pot (Third Grade Centennial Food City Store),4.7,1362,2050,25,Foods,33,MeituanFlash,92,20,0,39.91712,116.41605,1,1,0,0,70.9,16937,362.8,0.506,0.494,0.102,0.119,2.206,0.198,0.162,0.194,0.099,0.68,0.214,0.008,0.256,0.375,0.035,0.067,0.074,0.193,0,0
Beijing,Changping District,1号鸡秘·火锅鸡（第八档口-昌隆鲜厨Foods城店）,4.5,1663,3673,20,Foods,40,MeituanFlash,0,20,0,40.222026,116.233674,1,0,0,0,226.9,1689,204.2,0.505,0.495,0.106,0.121,0.221,0.195,0.162,0.195,0.116,0.733,0.133,0.018,0.222,0.415,0.045,0.073,0.075,0.17,0,0
Beijing,Chaoyang District,Milk T（蒙古奶茶·三里屯店）,4.6,167,900,21,Foods,56,MeituanFlash,50,20,0,39.936829,116.454659,1,1,0,1,345.1,7583,316.8,0.503,0.497,0.099,0.123,0.228,0.2,0.164,0.187,0.093,0.667,0.232,0.008,0.244,0.388,0.039,0.069,0.081,0.179,0,0
Beijing,Changping District,觅城鲜饮茶,0,24,6,10,Foods,36,MeituanFlash,0,20,2.5,40.214674,116.210382,1,1,0,0,226.9,1689,204.2,0.505,0.495,0.106,0.121,0.221,0.195,0.162,0.195,0.116,0.733,0.133,0.018,0.222,0.415,0.045,0.073,0.075,0.17,0,0
Beijing,Haidian District,优信鸡排,0,14,42,21,Foods,35,MeituanFlash,0,20,1,40.074349,116.219421,1,1,0,0,313.2,7271,398,0.505,0.495,0.1,0.125,0.216,0.21,0.162,0.187,0.106,0.728,0.156,0.009,0.233,0.383,0.04,0.068,0.077,0.199,0,0
Beijing,Changping District,张秀梅烤肉拌饭,4.7,366,461,19,Foods,33,MeituanFlash,71,15,1,40.215376,116.229275,1,1,0,0,226.9,1689,204.2,0.505,0.495,0.106,0.121,0.221,0.195,0.162,0.195,0.116,0.733,0.133,0.018,0.222,0.415,0.045,0.073,0.075,0.17,0,0
Beijing,Fengtai District,极味肥牛饭·炸鸡饭（第一档口新食力Foods城店）,4.7,1525,3764,22,Foods,40,MeituanFlash,87,20,0,39.85455,116.43233,1,1,0,0,201.9,6602,259.5,0.499,0.501,0.098,0.125,0.226,0.196,0.167,0.188,0.12,0.759,0.116,0.005,0.246,0.363,0.048,0.077,0.09,0.176,0,0
Beijing,Chaoyang District,茶满满·鲜榨果汁·奶茶（常营店）,4.6,208,346,13,DessertDrink,44,MeituanFlash,0,0,0,39.92438,116.59797,0,1,0,0,345.1,7583,316.8,0.503,0.497,0.099,0.123,0.228,0.2,0.164,0.187,0.093,0.667,0.232,0.008,0.244,0.388,0.039,0.069,0.081,0.179,0,0
Beijing,Changping District,广芳园·香港潮饮店（昌平沙河店）,4.9,474,893,18,Foods,33,MeituanFlash,83,20,0,40.150273,116.293359,1,1,0,0,226.9,1689,204.2,0.505,0.495,0.106,0.121,0.221,0.195,0.162,0.195,0.116,0.733,0.133,0.018,0.222,0.415,0.045,0.073,0.075,0.17,0,0
Beijing,Changping District,华莱士·全鸡汉堡（昌平北郝庄店）,4.5,770,1441,18,Foods,35,MeituanFlash,87,20,1,40.223733,116.210682,1,1,0,0,226.9,1689,204.2,0.505,0.495,0.106,0.121,0.221,0.195,0.162,0.195,0.116,0.733,0.133,0.018,0.222,0.415,0.045,0.073,0.075,0.17,0,0
Beijing,Haidian District,望京烧烤·小腰·小龙虾（上地店）,4.8,1822,3073,37,Foods,40, MeituanRun ,65,0,0,40.03661,116.2892,1,1,0,0,313.2,7271,398,0.505,0.495,0.1,0.125,0.216,0.21,0.162,0.187,0.106,0.728,0.156,0.009,0.233,0.383,0.04,0.068,0.077,0.199,0,0
Beijing,Changping District,蜜雪冰城（沙河松兰堡店）,4.5,622,1566,8,DessertDrink,30,MeituanFlash,81,20,0,40.152694,116.298213,1,1,0,0,226.9,1689,204.2,0.505,0.495,0.106,0.121,0.221,0.195,0.162,0.195,0.116,0.733,0.133,0.018,0.222,0.415,0.045,0.073,0.075,0.17,0,0
Beijing,Shunyi District,时刻cake高品质生日蛋糕定制,4.8,329,1114,80,SweetCake,60, MeituanRun ,2,0,0,40.13664,116.63836,0,1,1,0,132.4,1298,128.8,0.497,0.503,0.104,0.123,0.226,0.196,0.165,0.185,0.116,0.696,0.185,0.002,0.257,0.369,0.032,0.064,0.071,0.207,0,0
Beijing,Shunyi District,Wallace Whole Chicken Burger (Beijing Houshayu Store),4.5,1067,2054,20,Foods,40,MeituanFlash,76,20,0,40.099832,116.538176,1,1,0,0,132.4,1298,128.8,0.497,0.503,0.104,0.123,0.226,0.196,0.165,0.185,0.116,0.696,0.185,0.002,0.257,0.369,0.032,0.064,0.071,0.207,0,0
Beijing,Changping District,Tang Age Fast Food (Fuxue Road Store),5,527,1284,20,Foods,34,MeituanFlash,81,20,0,40.22107,116.24122,1,1,0,1,226.9,1689,204.2,0.505,0.495,0.106,0.121,0.221,0.195,0.162,0.195,0.116,0.733,0.133,0.018,0.222,0.415,0.045,0.073,0.075,0.17,0,0
Beijing,Tongzhou District,Northwest Muslim Restaurant · Barbecue (Majuqiao Store),4.6,1268,1225,29,Foods,45,MeituanFlash,78,20,0,39.756349,116.544386,1,1,1,0,184,2030,234.2,0.504,0.496,0.104,0.122,0.221,0.197,0.165,0.192,0.153,0.727,0.117,0.003,0.247,0.336,0.05,0.071,0.099,0.197,0,0
Beijing,Shunyi District,I am cake onlycake,0,21,7,170,SweetCake,90, MeituanRun ,0,0,0,40.102273,116.556305,1,1,0,0,132.4,1298,128.8,0.497,0.503,0.104,0.123,0.226,0.196,0.165,0.185,0.116,0.696,0.185,0.002,0.257,0.369,0.032,0.064,0.071,0.207,0,0
Beijing,Xicheng District,Han Xiaojiang Super Regan Noodles ● Hu Spicy Soup (Xisan Store),4.9,3821,4000,20,Foods,40,MeituanFlash,86,0,0,39.915845,116.365122,1,1,0,1,110.6,21888,263.1,0.505,0.495,0.101,0.12,0.226,0.201,0.161,0.192,0.098,0.682,0.213,0.007,0.245,0.392,0.034,0.065,0.061,0.203,0,0
Beijing,Changping District,Fresh Fruit Time (Yuehui Plaza Store),4.8,843,1420,15,FruitVegetables,37,MeituanFlash,73,20,1,40.212216,116.239447,1,1,0,1,226.9,1689,204.2,0.505,0.495,0.106,0.121,0.221,0.195,0.162,0.195,0.116,0.733,0.133,0.018,0.222,0.415,0.045,0.073,0.075,0.17,0,0
Beijing,Mentougou District,Childhood string (Mentougou Store),4.9,487,890,22,Foods,40, MeituanRun ,64,50,1,39.936501,116.094468,1,1,1,0,39.3,271,200.8,0.503,0.497,0.109,0.125,0.223,0.19,0.165,0.187,0.16,0.693,0.131,0.016,0.222,0.416,0.045,0.073,0.075,0.169,0,0
Beijing,Dongcheng District,Obligi Chicken Korean Fried Chicken (Chaoyangmen-W01 Till-Shangdi Food City Store),4.8,7665,9544,21,Foods,44,MeituanFlash,56,0,0,39.923184,116.432796,1,1,1,1,70.9,16937,362.8,0.506,0.494,0.102,0.119,2.206,0.198,0.162,0.194,0.099,0.68,0.214,0.008,0.256,0.375,0.035,0.067,0.074,0.193,0,0
Beijing,Chaoyang District,Oligi Chicken Korean Fried Chicken (Capital Airport Store),4.7,1428,2850,23,Foods,30,MeituanFlash,95,0,0,40.048773,116.595153,1,1,1,0,345.1,7583,316.8,0.503,0.497,0.099,0.123,0.228,0.2,0.164,0.187,0.093,0.667,0.232,0.008,0.244,0.388,0.039,0.069,0.081,0.179,0,0
Beijing,Xicheng District,Kana and egg-wrapped rice (Fuchengmen Store),4.7,98,600,32,Foods,42,MeituanFlash,75,15,0,39.923082,116.353279,1,1,0,0,110.6,21888,263.1,0.505,0.495,0.101,0.12,0.226,0.201,0.161,0.192,0.098,0.682,0.213,0.007,0.245,0.392,0.034,0.065,0.061,0.203,0,0
Beijing,Changping District,"Restaurant Without Borders, Creative Light Food",4.8,578,1276,28,Foods,36,MeituanFlash,0,20,2,40.21046,116.2404,1,1,0,1,226.9,1689,204.2,0.505,0.495,0.106,0.121,0.221,0.195,0.162,0.195,0.116,0.733,0.133,0.018,0.222,0.415,0.045,0.073,0.075,0.17,0,0
Beijing,Chaoyang District,BOOMROOM (Hesheng Hui Store),4.6,222,1101,32,SweetCake,30, MeituanRun ,0,25,5,39.900284,116.484878,1,1,0,0,345.1,7583,316.8,0.503,0.497,0.099,0.123,0.228,0.2,0.164,0.187,0.093,0.667,0.232,0.008,0.244,0.388,0.039,0.069,0.081,0.179,0,0
Beijing,Changping District,Rongliu · Da Tieniu Snail Powder (No. 4 Changlong Food City Store),4.8,1971,1846,18,Foods,40,MeituanFlash,100,18,0,40.22176,116.23377,1,1,0,0,226.9,1689,204.2,0.505,0.495,0.106,0.121,0.221,0.195,0.162,0.195,0.116,0.733,0.133,0.018,0.222,0.415,0.045,0.073,0.075,0.17,0,0
Beijing,Shunyi District,Gongcha (Shimen No. 2 Middle School),4.5,82,367,16,DessertDrink,30,MeituanFlash,0,20,0,40.133605,116.633997,1,1,0,0,132.4,1298,128.8,0.497,0.503,0.104,0.123,0.226,0.196,0.165,0.185,0.116,0.696,0.185,0.002,0.257,0.369,0.032,0.064,0.071,0.207,0,0
Beijing,Fengtai District,Charlotte cake,4.9,771,361,153,SweetCake,60, MeituanRun ,3,0,0,39.85533,116.43597,1,1,0,1,201.9,6602,259.5,0.499,0.501,0.098,0.125,0.226,0.196,0.167,0.188,0.12,0.759,0.116,0.005,0.246,0.363,0.048,0.077,0.09,0.176,0,0
Beijing,Changping District,Grandma's Food (Changping Yuehui Plaza Store),4.7,341,641,23,Foods,36,MeituanFlash,0,20,1,40.212335,116.239921,1,1,0,1,226.9,1689,204.2,0.505,0.495,0.106,0.121,0.221,0.195,0.162,0.195,0.116,0.733,0.133,0.018,0.222,0.415,0.045,0.073,0.075,0.17,0,0
Beijing,Changping District,Shaanxi Niuji Pulling Noodles (Tenth Grade-Dongguan Food City Store),4.4,177,566,22,Foods,35,MeituanFlash,65,20,1,40.22208,116.2609,1,1,0,0,226.9,1689,204.2,0.505,0.495,0.106,0.121,0.221,0.195,0.162,0.195,0.116,0.733,0.133,0.018,0.222,0.415,0.045,0.073,0.075,0.17,0,0
Beijing,Changping District,Mark Duo Korean Fried Chicken (the 13th stall Sihai Jinlong Food City Store),4.4,127,269,26,Foods,36,MeituanFlash,67,20,1,40.221026,116.234867,1,1,1,0,226.9,1689,204.2,0.505,0.495,0.106,0.121,0.221,0.195,0.162,0.195,0.116,0.733,0.133,0.018,0.222,0.415,0.045,0.073,0.075,0.17,0,0
Beijing,Changping District,"Have a fried cake (Changlong Gourmet City Store, No. 14)",4.7,1286,1768,20,Foods,32,MeituanFlash,80,20,0,40.22176,116.23377,1,1,0,0,226.9,1689,204.2,0.505,0.495,0.106,0.121,0.221,0.195,0.162,0.195,0.116,0.733,0.133,0.018,0.222,0.415,0.045,0.073,0.075,0.17,0,0
Beijing,Haidian District,Daoxiang Village (Suzhou Street Store),4.7,68,194,59,Foods,41,MeituanFlash,69,20,0,39.981093,116.305256,1,1,0,0,313.2,7271,398,0.505,0.495,0.1,0.125,0.216,0.21,0.162,0.187,0.106,0.728,0.156,0.009,0.233,0.383,0.04,0.068,0.077,0.199,0,0
Beijing,Changping District,Vilnas Italian Craft Cake (Shahe Store),4.9,1659,1757,125,SweetCake,60, MeituanRun ,1,0,0,40.150422,116.294381,0,1,1,1,226.9,1689,204.2,0.505,0.495,0.106,0.121,0.221,0.195,0.162,0.195,0.116,0.733,0.133,0.018,0.222,0.415,0.045,0.073,0.075,0.17,0,0
Beijing,Changping District,Cool Food Tower (Changping Gulou East Street Store),4.9,186,281,30,Foods,37,MeituanFlash,86,20,1,40.22492,116.23812,1,1,0,0,226.9,1689,204.2,0.505,0.495,0.106,0.121,0.221,0.195,0.162,0.195,0.116,0.733,0.133,0.018,0.222,0.415,0.045,0.073,0.075,0.17,0,0
Beijing,Haidian District,Xiong Jia · Korean Fried Chicken (Renmin University Store),4.8,3215,2695,21,Foods,30,MeituanFlash,70,0,0,39.967952,116.323009,1,1,1,0,313.2,7271,398,0.505,0.495,0.1,0.125,0.216,0.21,0.162,0.187,0.106,0.728,0.156,0.009,0.233,0.383,0.04,0.068,0.077,0.199,0,0
Beijing,Changping District,Spell a bowl! Fried Rice with Egg (No. 14-FOX Wan Chef Food City Store),4.8,6361,6688,20,Foods,35,MeituanFlash,89,0,0,40.225038,116.23792,0,1,1,1,226.9,1689,204.2,0.505,0.495,0.106,0.121,0.221,0.195,0.162,0.195,0.116,0.733,0.133,0.018,0.222,0.415,0.045,0.073,0.075,0.17,0,0
Beijing,Haidian District,Fine Brewed Fresh Beer,4.7,158,376,33,Foods,50, MeituanRun ,0,20,4,40.030967,116.341813,1,1,0,1,313.2,7271,398,0.505,0.495,0.1,0.125,0.216,0.21,0.162,0.187,0.106,0.728,0.156,0.009,0.233,0.383,0.04,0.068,0.077,0.199,0,0
Beijing,Shunyi District,CoCo petal Tea (Shunyi Golden Street Store),4.8,588,601,11,DessertDrink,40,MeituanFlash,82,0,0,40.09997,116.53839,1,1,0,0,132.4,1298,128.8,0.497,0.503,0.104,0.123,0.226,0.196,0.165,0.185,0.116,0.696,0.185,0.002,0.257,0.369,0.032,0.064,0.071,0.207,0,0
Beijing,Fengtai District,Cool Cat Milk Tea (Majiabao Store),4.8,329,658,17,DessertDrink,40,MeituanFlash,77,20,1,39.839134,116.385084,1,1,0,0,201.9,6602,259.5,0.499,0.501,0.098,0.125,0.226,0.196,0.167,0.188,0.12,0.759,0.116,0.005,0.246,0.363,0.048,0.077,0.09,0.176,0,0
Beijing,Daxing District,Crab and Beef Mixed Rice (Daxing Store),4.8,1927,601,26,Foods,40,MeituanFlash,84,20,0,39.742083,116.343211,1,1,0,0,199.4,1924,183.5,0.498,0.502,0.102,0.125,0.224,0.196,0.169,0.186,0.13,0.732,0.131,0.007,0.256,0.357,0.06,0.08,0.103,0.144,0,0
Beijing,Haidian District,Vilnas Italian Craft Cake (Renmin Store),4.9,2352,4978,140,SweetCake,45, MeituanRun ,18,0,0,39.965222,116.314027,0,1,1,1,313.2,7271,398,0.505,0.495,0.1,0.125,0.216,0.21,0.162,0.187,0.106,0.728,0.156,0.009,0.233,0.383,0.04,0.068,0.077,0.199,0,0
Beijing,Changping District,One Thirteen Afternoon Tea (Hamburg Milk Tea),0,12,42,7,Foods,39,MeituanFlash,0,20,4,40.22386,116.2102,1,1,0,0,226.9,1689,204.2,0.505,0.495,0.106,0.121,0.221,0.195,0.162,0.195,0.116,0.733,0.133,0.018,0.222,0.415,0.045,0.073,0.075,0.17,0,0
Beijing,Chaoyang District,Xie Baolin Barbecue Rice (Baiziwan Store),4.8,2280,4626,17,Foods,40,MeituanFlash,63,20,0,39.89951,116.4931,1,1,0,0,345.1,7583,316.8,0.503,0.497,0.099,0.123,0.228,0.2,0.164,0.187,0.093,0.667,0.232,0.008,0.244,0.388,0.039,0.069,0.081,0.179,0,0
Beijing,Changping District,Chizomi Pizza,4.7,127,520,25,Foods,35, MeituanRun ,0,0,0,40.224756,116.238172,0,1,1,0,226.9,1689,204.2,0.505,0.495,0.106,0.121,0.221,0.195,0.162,0.195,0.116,0.733,0.133,0.018,0.222,0.415,0.045,0.073,0.075,0.17,0,0
Beijing,Changping District,"Uncle Li Nanchang Mixing Powder (Changlong Food City Store, No. 23)",4.4,604,1595,20,Foods,36,MeituanFlash,0,20,2,40.22176,116.23377,1,0,0,0,226.9,1689,204.2,0.505,0.495,0.106,0.121,0.221,0.195,0.162,0.195,0.116,0.733,0.133,0.018,0.222,0.415,0.045,0.073,0.075,0.17,0,0
Beijing,Changping District,DQcncake Ice Cream Cake (Changping Store),4.3,172,656,78,SweetCake,103, MeituanRun ,0,30,0,40.215659,116.22999,1,1,0,0,226.9,1689,204.2,0.505,0.495,0.106,0.121,0.221,0.195,0.162,0.195,0.116,0.733,0.133,0.018,0.222,0.415,0.045,0.073,0.075,0.17,0,0
Beijing,Changping District,Pizza Hut House Express (Innovation Road Store),4.8,1266,3338,43,Foods,40,Merchant,69,0,5,40.212869,116.239069,1,1,0,1,226.9,1689,204.2,0.505,0.495,0.106,0.121,0.221,0.195,0.162,0.195,0.116,0.733,0.133,0.018,0.222,0.415,0.045,0.073,0.075,0.17,0,0
Beijing,Changping District,Asana · Curry · Chicken Nuggets · Egg-wrapped Rice,4.8,784,714,22,Foods,36,MeituanFlash,0,20,5,40.221759,116.23377,1,1,0,0,226.9,1689,204.2,0.505,0.495,0.106,0.121,0.221,0.195,0.162,0.195,0.116,0.733,0.133,0.018,0.222,0.415,0.045,0.073,0.075,0.17,0,0
Beijing,Xicheng District,Linyi Iron Pot Fried Chicken • Dashan Chicken (New Year's China Store),4.7,496,1000,45,Foods,58, MeituanRun ,26,20,3,39.877309,116.325638,1,1,0,1,110.6,21888,263.1,0.505,0.495,0.101,0.12,0.226,0.201,0.161,0.192,0.098,0.682,0.213,0.007,0.245,0.392,0.034,0.065,0.061,0.203,0,0
Beijing,Changping District,Fat Uncle's Rice · Crispy Chicken Roast Rice,4.6,436,388,19,Foods,36,MeituanFlash,80,20,1,40.223773,116.251482,1,1,0,0,226.9,1689,204.2,0.505,0.495,0.106,0.121,0.221,0.195,0.162,0.195,0.116,0.733,0.133,0.018,0.222,0.415,0.045,0.073,0.075,0.17,0,0
Beijing,Chaoyang District,Li Ji Oven Egg Cake,5,1422,5971,16,Foods,40,MeituanFlash,79,20,5,39.987419,116.424759,1,1,0,1,345.1,7583,316.8,0.503,0.497,0.099,0.123,0.228,0.2,0.164,0.187,0.093,0.667,0.232,0.008,0.244,0.388,0.039,0.069,0.081,0.179,0,0
Beijing,Xicheng District,Kessel Sweet Net Red Birthday Cake Customization,5,6017,4000,77,SweetCake,50, MeituanRun ,6,0,24,39.883096,116.330463,1,1,0,1,110.6,21888,263.1,0.505,0.495,0.101,0.12,0.226,0.201,0.161,0.192,0.098,0.682,0.213,0.007,0.245,0.392,0.034,0.065,0.061,0.203,0,0
Beijing,Changping District,Big Tea Cup (Songyuan Store),0,82,46,15,Foods,35,MeituanFlash,0,20,0,40.224361,116.2509,1,1,0,0,226.9,1689,204.2,0.505,0.495,0.106,0.121,0.221,0.195,0.162,0.195,0.116,0.733,0.133,0.018,0.222,0.415,0.045,0.073,0.075,0.17,0,0
Beijing,Fangshan District,Honey Snow Ice City (Vanke Peninsula Store),4.8,409,1694,9,DessertDrink,34,MeituanFlash,73,20,0,39.753409,116.210951,1,1,0,0,131.3,660,146.8,0.505,0.495,0.098,0.132,0.224,0.196,0.169,0.181,0.158,0.683,0.151,0.008,0.222,0.416,0.045,0.073,0.075,0.169,0,0
Beijing,Chaoyang District,"Hama cuisine Sichuan cuisine home cooking, kebab",4.5,707,1421,32,Foods,41,MeituanFlash,76,20,0,39.96791,116.45185,1,1,1,0,345.1,7583,316.8,0.503,0.497,0.099,0.123,0.228,0.2,0.164,0.187,0.093,0.667,0.232,0.008,0.244,0.388,0.039,0.069,0.081,0.179,0,0
Beijing,Changping District,Mr. Hai Jiao (Changping Store),4.9,166,374,25,Foods,35,MeituanFlash,67,20,0,40.21441,116.21857,1,1,0,1,226.9,1689,204.2,0.505,0.495,0.106,0.121,0.221,0.195,0.162,0.195,0.116,0.733,0.133,0.018,0.222,0.415,0.045,0.073,0.075,0.17,0,0
Beijing,Shunyi District,COCO OLIVE Tea (Capital Airport Store),4.8,1927,3407,13,DessertDrink,30,MeituanFlash,97,0,0,40.048606,116.590913,1,1,0,0,132.4,1298,128.8,0.497,0.503,0.104,0.123,0.226,0.196,0.165,0.185,0.116,0.696,0.185,0.002,0.257,0.369,0.032,0.064,0.071,0.207,0,0
Beijing,Chaoyang District,Shaye Light Food (World Trade Center Tianjie Store),4,1410,1274,20,Foods,44,MeituanFlash,0,20,0,39.918664,116.453396,1,1,0,0,345.1,7583,316.8,0.503,0.497,0.099,0.123,0.228,0.2,0.164,0.187,0.093,0.667,0.232,0.008,0.244,0.388,0.039,0.069,0.081,0.179,0,0
Beijing,Chaoyang District,Siyou Youth · Hunan Rice Noodles · Mixing Powder (Our Canteen Food City Store at the 6th Grade),4.8,1843,2033,22,Foods,38,MeituanFlash,62,0,0,40.04939,116.41038,1,1,0,0,345.1,7583,316.8,0.503,0.497,0.099,0.123,0.228,0.2,0.164,0.187,0.093,0.667,0.232,0.008,0.244,0.388,0.039,0.069,0.081,0.179,0,0
Beijing,Changping District,Niuyopu-Hand-made Beef Burger (Changping Store),4.8,1534,2898,31,Foods,38,MeituanFlash,74,20,0,40.225082,116.237626,1,1,1,0,226.9,1689,204.2,0.505,0.495,0.106,0.121,0.221,0.195,0.162,0.195,0.116,0.733,0.133,0.018,0.222,0.415,0.045,0.073,0.075,0.17,0,0
Beijing,Fengtai District,Kiln Chicken King (Jijiamiao Wanxing Store),4.8,674,1829,37,Foods,35, MeituanRun ,79,30,2,39.847684,116.339318,1,1,1,1,201.9,6602,259.5,0.499,0.501,0.098,0.125,0.226,0.196,0.167,0.188,0.12,0.759,0.116,0.005,0.246,0.363,0.048,0.077,0.09,0.176,0,0
Beijing,Chaoyang District,"Mongolian Brothers Tear Roast Chicken & Roast Meat (Steamed Chicken, Grade A2-Le Xiang Kitchen Food City Store)",4.3,1316,3219,33,Foods,32,MeituanFlash,85,20,1,39.98339,116.40922,1,1,1,0,345.1,7583,316.8,0.503,0.497,0.099,0.123,0.228,0.2,0.164,0.187,0.093,0.667,0.232,0.008,0.244,0.388,0.039,0.069,0.081,0.179,0,0
Beijing,Changping District,Jinzhou Barbecue Seafood (Dongsanqi Store),3.8,95,58,39,Foods,44, MeituanRun ,0,38,6,40.087176,116.414341,1,1,1,0,226.9,1689,204.2,0.505,0.495,0.106,0.121,0.221,0.195,0.162,0.195,0.116,0.733,0.133,0.018,0.222,0.415,0.045,0.073,0.075,0.17,0,0
Beijing,Daxing District,Luan Imperial Palace Tea (Yizhuang Store),4.7,517,718,11,Foods,30,MeituanFlash,0,15,0,39.78294,116.49683,1,1,0,0,199.4,1924,183.5,0.498,0.502,0.102,0.125,0.224,0.196,0.169,0.186,0.13,0.732,0.131,0.007,0.256,0.357,0.06,0.08,0.103,0.144,0,0
Beijing,Daxing District,Yifeng Beef Ramen,4.8,91,325,31,Foods,44,Merchant,0,30,6,39.665007,116.418593,1,1,0,0,199.4,1924,183.5,0.498,0.502,0.102,0.125,0.224,0.196,0.169,0.186,0.13,0.732,0.131,0.007,0.256,0.357,0.06,0.08,0.103,0.144,0,0
Beijing,Changping District,Grandma's bowl of craggy soup (Beiguan store),5,590,3612,21,Foods,40,MeituanFlash,80,20,3,40.215309,116.230446,1,1,0,1,226.9,1689,204.2,0.505,0.495,0.106,0.121,0.221,0.195,0.162,0.195,0.116,0.733,0.133,0.018,0.222,0.415,0.045,0.073,0.075,0.17,0,0
Beijing,Changping District,Nanmen Jinfeng Spicy Chicken (Beijing Yuehui Plaza Store),4.3,209,508,26,Foods,37,MeituanFlash,65,25,0,40.212394,116.238891,1,1,0,0,226.9,1689,204.2,0.505,0.495,0.106,0.121,0.221,0.195,0.162,0.195,0.116,0.733,0.133,0.018,0.222,0.415,0.045,0.073,0.075,0.17,0,0
Beijing,Tongzhou District,Shaxian Snacks (Tongji South Road Store),4.4,177,653,20,Foods,31,MeituanFlash,100,20,1,39.77234,116.54027,1,1,0,0,184,2030,234.2,0.504,0.496,0.104,0.122,0.221,0.197,0.165,0.192,0.153,0.727,0.117,0.003,0.247,0.336,0.05,0.071,0.099,0.197,0,0
Beijing,Chaoyang District,"Rice, bag, northeast rice bag (Shuangqiao store)",4.2,381,2093,20,Foods,41,MeituanFlash,94,20,1,39.906487,116.578199,0,1,0,0,345.1,7583,316.8,0.503,0.497,0.099,0.123,0.228,0.2,0.164,0.187,0.093,0.667,0.232,0.008,0.244,0.388,0.039,0.069,0.081,0.179,0,0
Beijing,Haidian District,Sweetheart Milk Tea House,0,17,19,10,DessertDrink,39,MeituanFlash,0,20,3,40.04495,116.33014,1,1,0,0,313.2,7271,398,0.505,0.495,0.1,0.125,0.216,0.21,0.162,0.187,0.106,0.728,0.156,0.009,0.233,0.383,0.04,0.068,0.077,0.199,0,0
Beijing,Fangshan District,Alley Restaurant (Yangtougang Store),4,198,375,45,Foods,50,Merchant,20,20,5,39.72375,116.01394,1,1,0,0,131.3,660,146.8,0.505,0.495,0.098,0.132,0.224,0.196,0.169,0.181,0.158,0.683,0.151,0.008,0.222,0.416,0.045,0.073,0.075,0.169,0,0
Beijing,Haidian District,Hehuan boutique private bento (Panda Star Kitchen Food City Store),4.5,703,1363,20,Foods,30,MeituanFlash,0,20,1,39.984887,116.328238,1,1,0,0,313.2,7271,398,0.505,0.495,0.1,0.125,0.216,0.21,0.162,0.187,0.106,0.728,0.156,0.009,0.233,0.383,0.04,0.068,0.077,0.199,0,0
Beijing,Chaoyang District,Gongcha (Yonganli Store),4.8,2493,5706,8,DessertDrink,33,MeituanFlash,79,0,1,39.909986,116.450691,1,1,1,0,345.1,7583,316.8,0.503,0.497,0.099,0.123,0.228,0.2,0.164,0.187,0.093,0.667,0.232,0.008,0.244,0.388,0.039,0.069,0.081,0.179,0,0
Beijing,Chaoyang District,"Bullfrog No.1 (bullfrog, grilled fish, meat crab pot)",4.9,3263,2467,42,Foods,50, MeituanRun ,29,0,0,39.918711,116.45255,1,1,1,0,345.1,7583,316.8,0.503,0.497,0.099,0.123,0.228,0.2,0.164,0.187,0.093,0.667,0.232,0.008,0.244,0.388,0.039,0.069,0.081,0.179,0,0
Beijing,Mentougou District,Cafe.Lu cafe,0,2,1,27,DessertDrink,40,MeituanFlash,0,20,0,39.92121,116.11524,1,1,0,0,39.3,271,200.8,0.503,0.497,0.109,0.125,0.223,0.19,0.165,0.187,0.16,0.693,0.131,0.016,0.222,0.416,0.045,0.073,0.075,0.169,0,0
Beijing,Dongcheng District,Shuyi Burns Xiancao (Beijing Dongcheng Yinhe SOHO Store),4.6,315,532,14,DessertDrink,40,MeituanFlash,68,20,0,39.920124,116.432839,1,1,0,0,70.9,16937,362.8,0.506,0.494,0.102,0.119,2.206,0.198,0.162,0.194,0.099,0.68,0.214,0.008,0.256,0.375,0.035,0.067,0.074,0.193,0,0
Beijing,Chaoyang District,Dried rice man · Home cooking (Asian Games Village Store),4.8,1925,4016,25,Foods,40,MeituanFlash,81,20,0,39.99791,116.40915,1,1,0,0,345.1,7583,316.8,0.503,0.497,0.099,0.123,0.228,0.2,0.164,0.187,0.093,0.667,0.232,0.008,0.244,0.388,0.039,0.069,0.081,0.179,0,0
Beijing,Daxing District,People's Restaurant (Daoxiao Noodles · Donkey Meat Fire),4.2,185,1091,23,Foods,30,MeituanFlash,96,20,2,39.661448,116.634903,1,1,0,0,199.4,1924,183.5,0.498,0.502,0.102,0.125,0.224,0.196,0.169,0.186,0.13,0.732,0.131,0.007,0.256,0.357,0.06,0.08,0.103,0.144,0,0
Beijing,Haidian District,Kuafu Bomb Company (Yuejie Store),4.5,130,414,33,Foods,56,MeituanFlash,69,20,0,40.089582,116.232152,1,1,0,0,313.2,7271,398,0.505,0.495,0.1,0.125,0.216,0.21,0.162,0.187,0.106,0.728,0.156,0.009,0.233,0.383,0.04,0.068,0.077,0.199,0,0
Beijing,Haidian District,Tea in the Palace (Beijing Jinyuan New Lufthansa Store),4.2,163,535,19,DessertDrink,48,MeituanFlash,57,20,2,39.958323,116.28733,1,1,0,0,313.2,7271,398,0.505,0.495,0.1,0.125,0.216,0.21,0.162,0.187,0.106,0.728,0.156,0.009,0.233,0.383,0.04,0.068,0.077,0.199,0,0
Beijing,Chaoyang District,About sugar dessert cake,0,2,12,101,SweetCake,60, MeituanRun ,0,20,0,39.93175,116.4481,1,1,0,0,345.1,7583,316.8,0.503,0.497,0.099,0.123,0.228,0.2,0.164,0.187,0.093,0.667,0.232,0.008,0.244,0.388,0.039,0.069,0.081,0.179,0,0
Beijing,Haidian District,"Xiaogu's sister is spicy and hot, spicy and hot (No. 3, Danleng Street-Dashui Gourmet City Store)",4.8,11273,9999,23,Foods,41,MeituanFlash,54,15,0,39.979089,116.313448,1,1,0,1,313.2,7271,398,0.505,0.495,0.1,0.125,0.216,0.21,0.162,0.187,0.106,0.728,0.156,0.009,0.233,0.383,0.04,0.068,0.077,0.199,0,0
Beijing,Miyun District,Spicy Temptation · Crayfish · Fish Frog · Barbecue (Miyun Store),4.6,567,400,53,Foods,55,Merchant,39,0,4,40.37476,116.843802,1,1,0,0,52.8,237,72,0.496,0.504,0.095,0.128,0.231,0.202,0.163,0.182,0.267,0.569,0.146,0.018,0.222,0.416,0.045,0.073,0.075,0.169,0,0
Beijing,Chaoyang District,Kuafu Fried Skewers · Bag Buns · Barbecue Tavern (Jinzhan Store),4.5,127,460,22,Foods,35,MeituanFlash,0,20,5,40.0022,116.5197,1,1,0,1,345.1,7583,316.8,0.503,0.497,0.099,0.123,0.228,0.2,0.164,0.187,0.093,0.667,0.232,0.008,0.244,0.388,0.039,0.069,0.081,0.179,0,0
Beijing,Chaoyang District,Jiujiu Ya Duck Neck (Baiziwan Store),3.9,116,262,26,Foods,38,MeituanFlash,86,30,0,39.895503,116.508378,1,1,0,0,345.1,7583,316.8,0.503,0.497,0.099,0.123,0.228,0.2,0.164,0.187,0.093,0.667,0.232,0.008,0.244,0.388,0.039,0.069,0.081,0.179,0,0
Beijing,Shunyi District,King McBurr. Hamburg. Fried Chicken (Shunyi Store),4.5,628,297,23,Foods,41,MeituanFlash,82,20,0,40.13504,116.66226,1,1,0,0,132.4,1298,128.8,0.497,0.503,0.104,0.123,0.226,0.196,0.165,0.185,0.116,0.696,0.185,0.002,0.257,0.369,0.032,0.064,0.071,0.207,0,0
Beijing,Chaoyang District,Serrano Whale Wo Niu Shao (Baiziwan Store),4.6,251,757,160,Foods,35, MeituanRun ,67,20,7,39.898416,116.517679,0,1,1,0,345.1,7583,316.8,0.503,0.497,0.099,0.123,0.228,0.2,0.164,0.187,0.093,0.667,0.232,0.008,0.244,0.388,0.039,0.069,0.081,0.179,0,0
Beijing,Haidian District,Shaye Light Food (Zhichun Road Store),5,403,1021,21,Foods,36,MeituanFlash,0,20,5,39.97058,116.33965,1,1,0,1,313.2,7271,398,0.505,0.495,0.1,0.125,0.216,0.21,0.162,0.187,0.106,0.728,0.156,0.009,0.233,0.383,0.04,0.068,0.077,0.199,0,0
Beijing,Tongzhou District,Jinzhou Special Barbecue,4.6,511,1133,34,Foods,40, MeituanRun ,48,20,1,39.893671,116.639089,1,1,1,0,184,2030,234.2,0.504,0.496,0.104,0.122,0.221,0.197,0.165,0.192,0.153,0.727,0.117,0.003,0.247,0.336,0.05,0.071,0.099,0.197,0,0
Beijing,Daxing District,Crown Cake COMPALNIO (Yizhuang Store),4.2,28,38,136,SweetCake,44, MeituanRun ,0,0,0,39.80716,116.47342,1,1,0,0,199.4,1924,183.5,0.498,0.502,0.102,0.125,0.224,0.196,0.169,0.186,0.13,0.732,0.131,0.007,0.256,0.357,0.06,0.08,0.103,0.144,0,0
Beijing,Fangshan District,Material Bazhen · Beef Hu Spicy Soup · Water Franchise Bag · Braised Noodles (Liangxiang University Town Store),3.9,536,929,22,Foods,35,MeituanFlash,93,20,1,39.722267,116.169042,1,0,0,0,131.3,660,146.8,0.505,0.495,0.098,0.132,0.224,0.196,0.169,0.181,0.158,0.683,0.151,0.008,0.222,0.416,0.045,0.073,0.075,0.169,0,0
Beijing,Chaoyang District,Chan Xiaofang • Smoked Chicken Rack (Jardine Mansion Store),4.7,288,818,25,Foods,30,MeituanFlash,0,20,0,39.953499,116.433056,1,1,0,1,345.1,7583,316.8,0.503,0.497,0.099,0.123,0.228,0.2,0.164,0.187,0.093,0.667,0.232,0.008,0.244,0.388,0.039,0.069,0.081,0.179,0,0
Beijing,Chaoyang District,Hong Kong-style crispy chicken barbecue rice (No. 18 stall Youxian food city restaurant),4.5,1470,4139,18,Foods,40,MeituanFlash,61,20,0,39.89137,116.46539,1,1,0,0,345.1,7583,316.8,0.503,0.497,0.099,0.123,0.228,0.2,0.164,0.187,0.093,0.667,0.232,0.008,0.244,0.388,0.039,0.069,0.081,0.179,0,0
Beijing,Haidian District,Honey Snow Ice City (Huayu Fashion Shopping Center Store),4.9,1293,5416,10,MarketConvenience,31,MeituanFlash,87,20,0,39.965322,116.323104,1,1,0,0,313.2,7271,398,0.505,0.495,0.1,0.125,0.216,0.21,0.162,0.187,0.106,0.728,0.156,0.009,0.233,0.383,0.04,0.068,0.077,0.199,0,0
Beijing,Tongzhou District,Puting Shengjian · Old Shanghai Flavor (Liyuan Store),4.7,2634,5158,21,Foods,42,MeituanFlash,0,20,0,39.878296,116.672752,1,1,0,1,184,2030,234.2,0.504,0.496,0.104,0.122,0.221,0.197,0.165,0.192,0.153,0.727,0.117,0.003,0.247,0.336,0.05,0.071,0.099,0.197,0,0
Beijing,Chaoyang District,Mixue Ice City (Dongdaqiao Store),4.8,1338,4847,10,DessertDrink,40,MeituanFlash,90,20,0,39.923396,116.449692,1,1,0,0,345.1,7583,316.8,0.503,0.497,0.099,0.123,0.228,0.2,0.164,0.187,0.093,0.667,0.232,0.008,0.244,0.388,0.039,0.069,0.081,0.179,0,0
Beijing,Fengtai District,Simaixuan pastry,4.6,226,106,50,SweetCake,60, MeituanRun ,16,30,0,39.859745,116.416113,1,1,0,0,201.9,6602,259.5,0.499,0.501,0.098,0.125,0.226,0.196,0.167,0.188,0.12,0.759,0.116,0.005,0.246,0.363,0.048,0.077,0.09,0.176,0,0
Beijing,Daxing District,Old Fuzhou Kitchen,4.4,19,160,28,Foods,42,MeituanFlash,0,20,0,39.785743,116.497351,1,1,0,0,199.4,1924,183.5,0.498,0.502,0.102,0.125,0.224,0.196,0.169,0.186,0.13,0.732,0.131,0.007,0.256,0.357,0.06,0.08,0.103,0.144,0,0
Beijing,Chaoyang District,Wallace Whole Chicken Burger (Anzhen Store),4.3,1424,2000,21,Foods,40,MeituanFlash,75,20,0,39.972298,116.411028,1,1,0,0,345.1,7583,316.8,0.503,0.497,0.099,0.123,0.228,0.2,0.164,0.187,0.093,0.667,0.232,0.008,0.244,0.388,0.039,0.069,0.081,0.179,0,0
Beijing,Fengtai District,Jiujiu Duck Neck (Meishikou Store),4.4,102,359,21,Foods,35,MeituanFlash,0,20,3,39.88136,116.27241,1,0,0,0,201.9,6602,259.5,0.499,0.501,0.098,0.125,0.226,0.196,0.167,0.188,0.12,0.759,0.116,0.005,0.246,0.363,0.048,0.077,0.09,0.176,0,0
Beijing,Chaoyang District,PartyCake Natural Cream Cake (Jintai Road Store),5,38,126,66,SweetCake,60, MeituanRun ,0,0,0,39.923658,116.477349,1,1,1,0,345.1,7583,316.8,0.503,0.497,0.099,0.123,0.228,0.2,0.164,0.187,0.093,0.667,0.232,0.008,0.244,0.388,0.039,0.069,0.081,0.179,0,0
Beijing,Chaoyang District,Hua Xiao Xinjiang Fried Rice Noodles,4.9,4288,3243,21,Foods,40,MeituanFlash,56,0,0,40.049552,116.409983,1,1,0,1,345.1,7583,316.8,0.503,0.497,0.099,0.123,0.228,0.2,0.164,0.187,0.093,0.667,0.232,0.008,0.244,0.388,0.039,0.069,0.081,0.179,0,0
Beijing,Xicheng District,Vegan food is light. Vegetary hamburger. Su Hot Dog (4th Grade Gold Life Food City Store),5,278,220,40,Foods,40, MeituanRun ,60,35,5,39.920957,116.350739,1,1,0,0,110.6,21888,263.1,0.505,0.495,0.101,0.12,0.226,0.201,0.161,0.192,0.098,0.682,0.213,0.007,0.245,0.392,0.034,0.065,0.061,0.203,0,0
Beijing,Daxing District,Congee Mix Fresh (Yinghai Store),4.7,1084,4594,24,Foods,42,MeituanFlash,63,15,0,39.774296,116.443631,1,1,0,0,199.4,1924,183.5,0.498,0.502,0.102,0.125,0.224,0.196,0.169,0.186,0.13,0.732,0.131,0.007,0.256,0.357,0.06,0.08,0.103,0.144,0,0
Beijing,Haidian District,Hu Yiba · Beef Hu Spicy Soup · Shui Jian Bao (Zhongguancun Store),4.9,3768,6230,20,Foods,34,MeituanFlash,78,20,1,39.973643,116.325459,1,1,0,1,313.2,7271,398,0.505,0.495,0.1,0.125,0.216,0.21,0.162,0.187,0.106,0.728,0.156,0.009,0.233,0.383,0.04,0.068,0.077,0.199,0,0
Beijing,Tongzhou District,Liangxue LANSOO Low Sugar Birthday Cake (Tongzhou Store),4.9,101,1135,120,SweetCake,66, MeituanRun ,0,0,0,39.920815,116.660616,0,1,1,0,184,2030,234.2,0.504,0.496,0.104,0.122,0.221,0.197,0.165,0.192,0.153,0.727,0.117,0.003,0.247,0.336,0.05,0.071,0.099,0.197,0,0
Beijing,Daxing District,"Aishang Malatang ""Rice Nian 』",4.7,191,322,22,Foods,40,MeituanFlash,90,20,0,39.631365,116.323359,1,1,0,0,199.4,1924,183.5,0.498,0.502,0.102,0.125,0.224,0.196,0.169,0.186,0.13,0.732,0.131,0.007,0.256,0.357,0.06,0.08,0.103,0.144,0,0
Beijing,Fangshan District,Shaanji Laotongguan Roujiamo · Rice Nian (Changyang Store),4.7,1216,1952,21,Foods,40,MeituanFlash,92,20,0,39.75857,116.20726,1,1,0,0,131.3,660,146.8,0.505,0.495,0.098,0.132,0.224,0.196,0.169,0.181,0.158,0.683,0.151,0.008,0.222,0.416,0.045,0.073,0.075,0.169,0,0
Beijing,Chaoyang District,Jing Si Ye (Liangmaqiao Store),4.9,383,1903,16,Foods,30,MeituanFlash,88,20,3,39.95007,116.46292,1,0,0,0,345.1,7583,316.8,0.503,0.497,0.099,0.123,0.228,0.2,0.164,0.187,0.093,0.667,0.232,0.008,0.244,0.388,0.039,0.069,0.081,0.179,0,0
Beijing,Tongzhou District,Fruit Birthday Cake (Tongming Dongjia Food City Store at the 15th stall),4.5,166,1406,68,SweetCake,60, MeituanRun ,13,0,0,39.877742,116.672994,1,1,0,0,184,2030,234.2,0.504,0.496,0.104,0.122,0.221,0.197,0.165,0.192,0.153,0.727,0.117,0.003,0.247,0.336,0.05,0.071,0.099,0.197,0,0
Beijing,Haidian District,LADMUGD Ice Cream Birthday Cake (Beijing Store),4.6,46,45,121,SweetCake,44, MeituanRun ,0,0,0,39.95173,116.36533,1,1,0,0,313.2,7271,398,0.505,0.495,0.1,0.125,0.216,0.21,0.162,0.187,0.106,0.728,0.156,0.009,0.233,0.383,0.04,0.068,0.077,0.199,0,0
Beijing,Chaoyang District,Mr. Big Small Bowl (Seine Food City),4.4,4375,9999,20,Foods,48,MeituanFlash,61,0,0,40.05436,116.415783,1,1,0,1,345.1,7583,316.8,0.503,0.497,0.099,0.123,0.228,0.2,0.164,0.187,0.093,0.667,0.232,0.008,0.244,0.388,0.039,0.069,0.081,0.179,0,0
Beijing,Chaoyang District,Jingyouju Xisi Baozi Shop (Hujialou Store),4.7,531,1760,22,Foods,40,MeituanFlash,95,20,5,39.92254,116.46747,1,1,0,0,345.1,7583,316.8,0.503,0.497,0.099,0.123,0.228,0.2,0.164,0.187,0.093,0.667,0.232,0.008,0.244,0.388,0.039,0.069,0.081,0.179,0,0
Beijing,Fengtai District,Let's grab seafood barbecue,3,34,73,62,Foods,42,MeituanFlash,0,20,0,39.83614,116.386729,1,1,0,1,201.9,6602,259.5,0.499,0.501,0.098,0.125,0.226,0.196,0.167,0.188,0.12,0.759,0.116,0.005,0.246,0.363,0.048,0.077,0.09,0.176,0,0
Beijing,Changping District,Tea rice thought · Burger · Fried chicken · Snacks,4.8,139,159,22,Foods,50,MeituanFlash,57,15,0,40.242175,116.125016,1,1,0,0,226.9,1689,204.2,0.505,0.495,0.106,0.121,0.221,0.195,0.162,0.195,0.116,0.733,0.133,0.018,0.222,0.415,0.045,0.073,0.075,0.17,0,0
Beijing,Dongcheng District,Tiangaitian Roast Duck Restaurant (Anding Store),4.5,529,900,28,Foods,48,MeituanFlash,68,20,0,39.954894,116.407613,1,1,0,0,70.9,16937,362.8,0.506,0.494,0.102,0.119,2.206,0.198,0.162,0.194,0.099,0.68,0.214,0.008,0.256,0.375,0.035,0.067,0.074,0.193,0,0
Beijing,Tongzhou District,Meizi Meike Cake Baking Shop (Tongzhou Store),4.7,199,1398,78,SweetCake,65, MeituanRun ,0,0,0,39.87531,116.69814,1,1,0,1,184,2030,234.2,0.504,0.496,0.104,0.122,0.221,0.197,0.165,0.192,0.153,0.727,0.117,0.003,0.247,0.336,0.05,0.071,0.099,0.197,0,0
Beijing,Xicheng District,Rice rare fragrance crab roe roast pork rice,4.8,2300,4677,26,Foods,40,MeituanFlash,82,20,0,39.91807,116.37385,1,1,0,1,110.6,21888,263.1,0.505,0.495,0.101,0.12,0.226,0.201,0.161,0.192,0.098,0.682,0.213,0.007,0.245,0.392,0.034,0.065,0.061,0.203,0,0
Beijing,Chaoyang District,Liangxue LANSOO Low Sugar Birthday Cake (Beijing Store),4.9,922,2039,139,SweetCake,72, MeituanRun ,1,0,0,39.953522,116.443364,1,1,0,1,345.1,7583,316.8,0.503,0.497,0.099,0.123,0.228,0.2,0.164,0.187,0.093,0.667,0.232,0.008,0.244,0.388,0.039,0.069,0.081,0.179,0,0
Beijing,Tongzhou District,"Daoxiang Village, Beijing",5,20,89,76,Foods,49, MeituanRun ,17,29,2,39.986766,116.689144,1,1,0,0,184,2030,234.2,0.504,0.496,0.104,0.122,0.221,0.197,0.165,0.192,0.153,0.727,0.117,0.003,0.247,0.336,0.05,0.071,0.099,0.197,0,0
Beijing,Fangshan District,Jin Guyuan Dumplings (Stall in B1 Seven Fresh Supermarket of Olay Phase II),4.2,73,306,24,Foods,35,MeituanFlash,0,20,1,39.764769,116.184797,1,1,0,0,131.3,660,146.8,0.505,0.495,0.098,0.132,0.224,0.196,0.169,0.181,0.158,0.683,0.151,0.008,0.222,0.416,0.045,0.073,0.075,0.169,0,0
Beijing,Chaoyang District,Xiangyuanqiao Rice Noodles (Rice Noodles. Chaoyang Store),5,96,213,18,Foods,40,MeituanFlash,92,15,0,39.92229,116.44165,1,1,0,0,345.1,7583,316.8,0.503,0.497,0.099,0.123,0.228,0.2,0.164,0.187,0.093,0.667,0.232,0.008,0.244,0.388,0.039,0.069,0.081,0.179,0,0
